id,company_name,ceo_name,biz_type,biz_number,address,address_detail,phone,biz_category,biz_item,latitude,longitude
55f22319-2b97-49f7-a76a-2bebc1f5c669,(사)나눔세상 휴먼플러스,김보연,법인,680-82-00118,서울 영등포구 신길로 220,07313 서울 영등포구 신길로 220 102호(신길동),010-5585-7137,서비스업,자원봉사활동 관련 서비스,37.5117087,126.9102898
2170fcff-6b1c-4355-b4b1-f26631822af9,(사)부산십대선교회 YFC,허영구,개인,614-82-68289,부산광역시 부산진구 가야공원로303호(가야동,"47383 부산광역시 부산진구 가야공원로 39 1동3층303호(가야동, 가야반도보라빌)",--,,,35.1480384,129.0290417
0b07c03d-918e-4c5a-8907-c412d2b5a148,(사)한국에스아이엠국제선교회,성남용,개인,129-82-07917,경기도 성남시 분당구 돌마로 47 602,"13615 경기도 성남시 분당구 돌마로 47 602,603호(금곡동, 이코노샤르망)",--,,,37.350384,127.1073771
8f0e27a1-462c-4cf5-9aef-6d47d26afeca,(재)기독교대한감리회유지재단,전명구,법인,124-82-17370,경기도 오산시 오산로 253-1 (오산동,"18136 경기도 오산시 오산로 253-1 (오산동, 보금자리)",010-3137-0116,부동산업,임대,37.1497419,127.0683393
f18bb31b-7456-45f1-b6fd-3979db097816,(재)대한예수교장로회 합신총회유지재단,박영선,법인,134-82-03489,서울특별시 종로구 김상옥로 30 (연지동,"03129 서울특별시 종로구 김상옥로 30 (연지동, 한국기독교연합회관)",010-8758-7077,,,37.5729123,127.000888
4ea6d023-f59d-4c6b-b21a-9beb2e44da3e,(주)감성,임명희,법인,129-81-89101,경기도 화성시 병점3로 37,18401 경기도 화성시 병점3로 37 202호(병점동),031-718-4659,건설업,"실내인테리어,실내건축공사",37.2083014,127.0375682
a921b1f4-7ffc-4110-a594-0b729121fb50,(주)감성 2022,임명희,법인,129-81-89101,경기도 화성시 장안면 장안로 388,18583 경기도 화성시 장안면 장안로 388 103호,031-718-4659,건설업,"실내인테리어,실내건축공사",37.0790089,126.8568281
8109e762-93e6-442e-966e-5a2a96d1bec0,(주)감성 용인지점,임명희,법인,218-85-06000,경기도 용인시 기흥구 구성로 357(청덕동,"16914 경기도 용인시 기흥구 구성로 357 D동 302호(청덕동, 용인테크노밸리)",031-718-4659,"제조,서비스","인쇄업,출판업,산업디자인",37.2913994,127.1480524
23a27c21-8735-45f1-9579-9bc451550158,(주)강남노블부동산중개법인,서시은,법인,309-88-02015,서울특별시 강남구 도산대로89길 35 (청담동,"06012 서울특별시 강남구 도산대로89길 35 102호 (청담동, 청담범신칼릭스빌2차)",010-8933-5333,부동산업,부동산 중개 및 대리업,37.5267317,127.0517459
c0f90300-c115-40f2-b2f3-4b934dff6dea,(주)고래픽쳐스,김주경,법인,626-88-00469,서울 마포구 월드컵로7길 118,04020 서울 마포구 월드컵로7길 118 2층(합정동),02-2135-1570,정보서비스(출판/영상/방송통신)업,일반영화제작,37.5517529,126.9059721
63cc31b8-542c-4d2a-a87b-7eb67ac9cf7d,(주)국제시티,김일주,법인,852-88-01510,경기 성남시 중원구 둔촌대로 388 (상대원동,"13403 경기 성남시 중원구 둔촌대로 388 (크란츠 테크노) 7층 718호 (상대원동, 크란츠테크노)",010-4117-4338,건 설 업,시설물 유지관리 공사업,37.4326369,127.1591639
7b6ab223-d9a1-4f0d-9a49-b5ffec9a66d6,(주)그랑팩토리,신민혁,법인,844-86-01970,경기 용인시 처인구 양지읍 남평로 184,17162 경기 용인시 처인구 양지읍 남평로 184,010-9021-9421,"건설업,운수및창고업","도배,실내장식 및 내장 목공사업, 늘찬 배달업",37.2287581,127.3021736
596e8694-8542-4147-abfa-78b23c94af52,(주)그랑팩토리DH001,신민혁,법인,844-86-01970,경기 성남시 중원구 금광로 72 (금광동,"13195 경기 성남시 중원구 금광로 72 507동 106호 (금광동,e편한세상금빛그랑메종)",010-9021-9421,건 설 업,"도배, 실내 장식 및 내장 목공사업",37.4499412,127.1600106
c7eba4c3-2b6b-462a-88e6-0c53f443777d,(주)나길테크,강호성,법인,652-86-01503,경기 성남시 분당구 운중로 192,13467 경기 성남시 분당구 운중로 192 2층 206호,010-9873-1615,정보통신업,응용 소프트웨어 개발 및 공급업,37.3905626,127.0842929
569f8cbf-69f1-4200-9c92-1957a354d511,(주)늘채움,이배영,법인,227-88-01387,서울특별시 강서구 마곡중앙6로 21,"07801 서울특별시 강서구 마곡중앙6로 21 , 524호(마곡동, 이너매스마곡Ⅰ)",010-9173-3872,부동산업,부동산 투자 자문업,37.5608732,126.8296227
76d74c88-bca4-4fac-b6a5-9d6c70740079,(주)대아 에프엔 에스,문재현,법인,647-87-01148,경기 화성시 팔탄면 서해로987번길 5,18530 경기 화성시 팔탄면 서해로987번길 5 A동 2층 213호(지월리),010-9281-8730,도매 및 소매업,농산물 유통업,37.1497474,126.8915067
d721d35e-61b5-4e9d-93f1-41d86c2c440f,(주)대원,박교성,법인,543-87-02563,경기도 포천시 소흘읍 호국로 287번길 9-53,"11184 경기도 포천시 소흘읍 호국로 287번길 9-53, 15동2층 204-1호",010-5391-5141,건 설 업,시설물 유지관리 공사업,37.80068199999999,127.1242594
f0c56543-2668-434b-80e6-7ea6cd54e1ba,(주)더모어리치,최석환,법인,416-88-02332,경기도 오산시 오산로 160번길 11 (원동,"18143 경기도 오산시 오산로 160번길 11 502호 (원동, 원동프라자)",010-5642-1278,부동산업,경영자문,37.1414625,127.0699193
e02ca86b-63f6-4b86-af54-b2b2f63a2222,(주)더바른건설,김일중,법인,711-81-01942,경기도 성남시 분당구 백현로 97 (수내동,"13595 경기도 성남시 분당구 백현로 97 1213호 (수내동, 수내동 다운타운)",010-8795-3228,건설업,"마무리공사, 실내외인테리어",37.3768362,127.1113866
4dde1f38-249f-4fdd-a821-3d23dfc2f8f8,(주)더블유에스엔엠,정미희,법인,107-87-91410,서울특별시 서초구 방배로19길 63 (방배동,"06681 서울특별시 서초구 방배로19길 63 (방배동, 서동빌딩)",010-9855-1005,서비스/임대,웨딩홀공간연출/의자커버렌탈,37.4840932,126.9918466
16187a8c-0f0a-43ba-aaeb-6083568051dd,(주)더캠프,윤덕진,법인,215-87-87589,서울 송파구 송파대로28길 32 (가락동,"05718 서울 송파구 송파대로28길 32 801호 (가락동,올림피아오피스텔)",070-4943-0179,도매 및 상품중개업,컴퓨터 및 주변장치,37.4947289,127.1213108
0bb6e872-80bb-4f1f-9f61-104b59421ed6,(주)데일리엔케이,이광백,법인,101-86-15552,서울특별시 마포구 동교로 59,04018 서울특별시 마포구 동교로 59 2층 (망원동),02-732-6998,"출판, 영상, 방송통신 및 정보서비스업","뉴스 제공업, 데이터베이스 및 온라인정보 제공업,그외 기타 정보서비스업",37.5534699,126.9087684
12004f68-25ad-4588-8e80-485f82f03843,(주)두영코퍼레이션,민병덕,법인,144-81-15817,경기도 용인시 기흥구 신구로 52 (구갈동,"16971 경기도 용인시 기흥구 신구로 52 502호 (구갈동, 심구프라자)",031-703-3513,건 설 업,조경 건설업,37.2767019,127.1097256
f9cc0e0f-bb72-4561-8ece-0094f213c484,(주)디비에스컴퍼니,이승일,법인,748-81-02074,경기도 용인시 처인구 남사읍 통삼로355번길 37,17118 경기도 용인시 처인구 남사읍 통삼로355번길 37,010-4999-7656,건 설 업,건설시행및설계,37.1321049,127.1283938
282ccf62-32bf-4577-9862-a4747600918d,(주)디앤에이 메디칼,신승철,법인,130-88-01948,경기 화성시 동탄대로5길 9(송동,"18497 경기 화성시 동탄대로5길 9 201동 906호(송동, 더샵동탄센텀폴리스2단지)",031-202-8226,"도소매, 서비스","화장품, 판촉대행, 마케팅대행",37.1666393,127.1038634
6d9b5ad8-1181-49a7-ae01-f48faf4c3a99,(주)디에스이엔,김용운,법인,669-86-02548,경기 안산시 상록구 샘골로 136,15541 경기 안산시 상록구 샘골로 136 2층 204-1094호(본오동),010-9387-5731,도매 및 소매업,가전제품 및 부품 도매업,37.2958358,126.8633326
efb5b773-3eb3-4236-86c5-83e15b1a1f1a,(주)디자인리담,윤영철,법인,262-86-01601,서울특별시 서대문구 연희로 81-5 (연희동,"03708 서울특별시 서대문구 연희로 81-5 4층 03-04호 (연희동, 평화빌딩)",02-3144-7227,"전문, 과학 및 기술 서비스업",경영 컨설팅업,37.5656041,126.9294403
409891d6-032a-44ea-9413-4a28754de4a6,(주)루이프로덕션DH001,김사경,법인,627-86-02689,서울특별시구 왕십리로 83-21(성수동1가,"04769 서울특별시 성동구 왕십리로 83-21 비동 1602호(성수동1가, 아크로서울포레스트)",010-5767-2254,"협회 및 단체, 수리 및 기타 개인서비스",작가,37.538883,127.0483765
2924d930-37ac-4f57-8412-96508e293e2f,(주)리얼티명인 영월지점,황명호,법인,802-85-00757,강원도 영월군 영월읍 동강로 124-10,26223 강원도 영월군 영월읍 동강로 124-10,--,숙박 및 음식점업,"여관업, 기타 관광숙박시설 운영업, 기숙사 운영업, 그외 기타 숙박업",37.1932558,128.5029578
8293f0c3-2220-42ea-966c-8d5a9700b85b,(주)매일푸드,문미정,법인,849-86-03110,경기 성남시 중원구 마지로155번길 25,13406 경기 성남시 중원구 마지로155번길 25 1층,010-9083-4544,숙박 및 음식점업,도시락 배달,37.4276719,127.1491596
35431ba3-3e16-490d-966d-bd2102397a56,(주)모던시스템,이정삼,법인,513-81-92984,경기 광주시 초월읍 용수길 64-30,12733 경기 광주시 초월읍 용수길 64-30 제1동,010-7701-3631,제조업,금속주조업(방충망 및 창호제작),37.3862534,127.3053996
1550f55a-6eca-49e4-8d29-8efb01639749,(주)베가이앤씨,배용천,법인,134-86-81824,경기도 부천시 소사구 은성로 20-1,14758 경기도 부천시 소사구 은성로 20-1 1층(소사본동),010-5497-7529,도소매,전자상거래업,37.4750947,126.7928374
3bcd9037-2487-40cc-a694-39d005283240,(주)보머스디자인,정소이,법인,114-87-10623,서울특별시 서초구 사평대로 102(반포동,"06575 서울특별시 서초구 사평대로 102 4층(반포동, 대국빌딩)",02-3477-2812,서비스(전문/과학및기술)업,디스플레이디자인및컨설팅,37.498785,126.9957786
f898c6c1-62cf-4ca2-aab7-ae11d81a833c,(주)보머스디자인(지점 인시그니아),정소이,법인,284-85-02369,서울특별시 서초구 방배동 750-20,137060 서울특별시 서초구 방배동 750-20 인시그니아반포오피스텔 102동 1804호,--,부동산업,"비주거용 건물 임대업(점포, 자기땅)",37.4985274,126.9855474
c0e9dc7c-ee74-49af-8282-8a0db47b6140,(주)보머스디자인(지점 펜트힐B130),정소이,법인,482-85-02508,서울특별시 강남구 언주로 720B130호,06058 서울특별시 강남구 언주로 720 지1층 B130호(논현동),010-7764-4088,부동산업,"비주거용 건물 임대업(점포, 자기땅)",37.5055798,127.0414738
3155a709-54dd-42c7-b0f4-dc37d3248b0b,(주)보머스디자인(지점 펜트힐B226),정소이,법인,597-85-02488,서울특별시 강남구 언주로 720B226호,06058 서울특별시 강남구 언주로 720 지2층 B226호(논현동),02-3477-2812,부동산업,"비주거용 건물 임대업(점포, 자기땅)",37.5055798,127.0414738
af685a34-e7da-4040-9958-c4d24edc6f0c,(주)보머스디자인(지점),정소이,법인,570-85-01688,서울 강남구 논현동 28 28-2,06042 서울 강남구 논현동 28 28-2,031-783-8877,"비주거용 건물 임대업(점포, 자기땅)",부동산업,37.5151899,127.0275539
40d35171-05da-41cb-8267-0023e0752f17,(주)보머스디자인X(20년통합),정소이,법인,114-87-10623,서울특별시 서초구 사평대로 102,06575 서울특별시 서초구 사평대로 102,02-3477-2812,서비스(전문/과학및기술)업,디스플레이디자인및컨설팅,37.498785,126.9957786
022640fa-1a80-4c5e-9f41-02a9918a7d6a,(주)보머스디자인_,정소이,법인,114-87-10623,서울 서초구 사평대로 102 (반포동,"06575 서울 서초구 사평대로 102 (반포동,대국B/D)4층",02-3477-2812,서비스(전문/과학및기술)업,디스플레이디자인및컨설팅,37.498785,126.9957786
d5adcbff-b099-4d5a-9eb2-1ef0a091009f,(주)비밍,김도협,법인,740-81-02560,서울 영등포구 63로 40 (여의도동,"07345 서울 영등포구 63로 40 1007호 (여의도동,라이프오피스텔)",02-6012-7820,정보통신업,소프트웨어 플랫폼 개발 및 서비스업,37.5234314,126.9342505
7c7a6f01-662e-44f4-be4a-6c75832675bc,(주)비에프로지스,김명석,법인,376-86-01967,세종특별자치시 한누리대로 350 (어진동,"30121 세종특별자치시 한누리대로 350 6층 (어진동, 뱅크빌딩)",010-8715-0973,화물운송주선업,"화물 운송 중개, 대리 및 관련 서비스업",36.5013997,127.2638309
57dc8622-ef0b-416c-adb6-2e5e66927a00,(주)비엔아이아이,심성우,법인,129-86-57619,경기 성남시 분당구 정자일로156번길 12 (정자동,"13558 경기 성남시 분당구 정자일로156번길 12 3층 309호 (정자동,타임브릿지)",010-4242-5134,제조업,유선통신장치/무선통신방송및응용장치,37.3638525,127.1072361
b143c0da-bbbd-452f-a4d6-860adf105eec,(주)비엠에프,강부원,법인,891-81-01802,경기도 양주시 천보산로5번길 46,11464 경기도 양주시 천보산로5번길 46 (회암동),010-4690-3259,도매 및 소매업,전자상거래 소매업,37.8419342,127.0922875
6cc940b2-f14d-45fb-9a15-3cf1e125b6d0,(주)비지코퍼레이션,김소현,법인,825-87-00564,인천광역시 연수구 센트럴로 313 제 제씨,22006 인천광역시 연수구 센트럴로 313 제 19층 제씨 1915호 (송도동),010-9150-7831,건 설 업,조경 건설업,37.3999581,126.6388162
8a66bb25-5772-4a3f-9783-5070c58979fd,(주)빈센치오,이재희,법인,129-86-04543,경기도 광주시 고불로229번길 59,12782 경기도 광주시 고불로229번길 59 (태전동),031-797-2753,"제조업,도소매","양말,스타킹외",37.3953934,127.2081118
53d971e6-8a91-4fe5-9251-fa30434f8b19,(주)삼성피엘,정다일,법인,675-88-00743,서울 서초구 효령로53길 45(서초동,"06652 서울 서초구 효령로53길 45 201-40호(서초동,서초이오빌)",010-9080-8442,도소매,이동통신,37.4865561,127.0128914
00c4b77b-8d12-411f-a3ef-0c9d7060d664,(주)서울동물병원,장재호,법인,129-81-94910,경기도 성남시 중원구 희망로 442,13180 경기도 성남시 중원구 희망로 442 (금광동),031-741-8119,소매업(자동차제외)/수의업,애완용동물및관련용품,37.4444154,127.1577941
46b5549a-2380-4114-8b45-0fd261281816,(주)셀디자인,곽향선,법인,201-86-05000,서울특별시 도봉구 도봉로135길 75-3,01391 서울특별시 도봉구 도봉로135길 75-3 (쌍문동),010-3635-5672,도소매,화장품,37.6613085,127.0389199
7228a43d-ca07-411c-a9b1-4f2448d2d78f,(주)수다옐로우,이찬유,법인,151-86-00336,경기 광주시 회안대로 101-10,12798 경기 광주시 회안대로 101-10 (매산동),010-4135-8722,제조업,"인쇄물,판촉물",37.36386400000001,127.2431126
f2e38176-0785-450f-9243-329f17f439cd,(주)승국케미칼,이희재,법인,215-86-13891,경기도 성남시 분당구 서현로 204(서현동,"13591 경기도 성남시 분당구 서현로 204 921호(서현동, 엘지에클라트2)",031-706-1552,도매,윤활유,37.3856592,127.1342693
a5d5827c-ead7-4e87-981a-f82ffd42d73a,(주)신엔터테인먼트,히라야마모토카즈,법인,892-87-00434,서울 강남구 강남대로 584(논현동,"06043 서울 강남구 강남대로 584 6층 6115호(논현동,성일빌딩)",02-6925-5996,서비스,"연예매니지먼트/이벤트기획,제작,운영",37.5136787,127.0317124
b3f0db65-32d7-49fc-8aa3-5ba344a821f8,(주)씨씨저니코리아,탄웨이키안,법인,760-87-02697,서울특별시 서초구 강남대로 359 (서초동,"06621 서울특별시 서초구 강남대로 359 1208호 (서초동, 대우도씨에빛2)",010-5441-1196,도매 및 소매업,의복 액세서리 및 모조 장신구 도매업,37.4947834,127.0285982
0c6c041e-30fc-4231-8094-a6f4217815ce,(주)씨엔에스피셔리,백운상,법인,603-81-78077,서울특별시 양천구 월정로50길 12,07903 서울특별시 양천구 월정로50길 12 지하1층(신월동),010-4154-2151,도매,무역(수입업),37.5416719,126.8314582
d49af735-b3be-439e-9af1-496ed164a325,(주)씨엘에스컨설팅,"김규한,최유환",법인,119-86-23276,서울특별시 관악구 남부순환로 2054,08805 서울특별시 관악구 남부순환로 2054 광일빌딩 303호 (남현동),02-521-1216,서비스업,교육컨설팅외,37.4763204,126.9769405
3658bf97-47b5-4a53-862f-bd3de14b5321,(주)아리푸드,강희숙,법인,720-87-00522,전라남도 고흥군 동강면 동강중촌길 47-8,59502 전라남도 고흥군 동강면 동강중촌길 47-8,061-843-2220,제조업,과실및채소절임식품,34.781614,127.3293227
190fcb95-eb2b-43ab-8117-a0fdd7a91f41,(주)아신무역,조남철,법인,105-86-01138,서울특별시구 양재대로 1603(천호동,"05306 서울특별시 강동구 양재대로 1603 5층 503호(천호동, 약제빌딩)",010-5235-8989,부동산업,비주거용 건물 임대업,37.5488065,127.1433478
744d3311-d8da-4916-8998-39bafda55934,(주)아이커뮤니케이션즈,이종우,법인,117-81-78445,서울 금천구 범안로 1142(가산동,"08595 서울 금천구 범안로 1142 1222호(가산동,하우스디 더 스카이밸리 가산2차)",070-4821-2527,정보통신업,응용 소프트웨어 개발 및 공급업,37.4658639,126.8888755
52227ee9-f0b0-45a3-84a9-38dc8ac59dce,(주)아이탑이십일닷컴,전대길,법인,211-86-61047,경기도 성남시 중원구 사기막골로148번길 8 (상대원동,"13207 경기도 성남시 중원구 사기막골로148번길 8 1204호 (상대원동, 중앙이노테크)",010-3339-0937,정보통신업,방송 프로그램 제작업,37.4411097,127.1782389
19e06c2c-1b6b-4b29-89a7-cf876e448932,(주)아인웹탱,여해주,법인,376-87-03244,경기도 용인시 기흥구 죽전로 6(보정동,"16897 경기도 용인시 기흥구 죽전로 6 703-10호(보정동, 한솔프라자)",010-9725-7688,정보통신업,소프트웨어 개발,37.3202303,127.10939
2c688f8e-309a-4ea1-9165-e7bfb8f48860,(주)앰테크,EM PAUL,법인,291-86-01462,경기 이천시 대월면 군량리 59-2,17402 경기 이천시 대월면 군량리 59-2,010-7233-0080,도매,자동차부품,37.1800311,127.5083343
287b1600-afc4-4f52-86a2-93c8aa1cf765,(주)업스타트,이미진,법인,205-86-02835,경기도 성남시 분당구 대왕판교로 660(삼평동,"13494 경기도 성남시 분당구 대왕판교로 660 A동 7층 712호(삼평동, 유스페이스1)",010-9114-4490,"전문, 과학 및 기술 서비스업",경영 컨설팅업,37.3975108,127.1120412
2a3f9f06-0e81-4473-aa76-c4354478baa6,(주)에레니온,박해인,법인,264-81-26544,경기도 수원시 팔달구 향교로3번길 35-3,16455 경기도 수원시 팔달구 향교로3번길 35-3 4층(매산로1가),010-9038-5056,건설업,"도배, 실내 장식 및 내장 목공사업",37.2689742,127.0015149
422e6986-1fb2-41ee-b0d7-35bdba580641,(주)에이라인스포츠,"김민재,홍준현",법인,507-81-16905,경기 의왕시 오봉산단1로 12,16079 경기 의왕시 오봉산단1로 12 4층 416호 (이동),010-7338-1120,도매 및 소매업,"스포츠의류, 신발, 잡화",37.3332447,126.9581908
3ef8f194-a610-4d1e-85db-8e0341d91a02,(주)에이알엑스,정다일,법인,442-88-02874,서울 서초구 마방로6길 13 (양재동,"06776 서울 서초구 마방로6길 13 (양재동,범정빌딩)",010-9080-8442,도매 및 소매업,화장품 및 화장용품 도매업,37.4751692,127.0422496
3aba4074-40eb-4f00-8ec5-b69f4507fe5c,(주)에이유스포츠,이상인,법인,326-86-00885,경기 포천시 자작로6길 6,11158 경기 포천시 자작로6길 6 (자작동),010-6215-0258,제조업,스포츠용품,37.8738613,127.1670004
c8a26af1-b1ab-4862-bc67-2210b202ed91,(주)에이제이전자,임재혁,법인,143-86-01260,경기 시흥시 공단1대로 244(정왕동,"15103 경기 시흥시 공단1대로 244 22동 211호(정왕동,공구상가)",010-2759-0403,부동산업,비주거용 건물 임대업,37.3351753,126.7271732
068e42d1-ef9c-43a8-89f3-6b36596dae20,(주)에이제이홀딩스,이다니엘,법인,547-87-02416,경기도 용인시 수지구 현암로125번길 11 (죽전동,"16875 경기도 용인시 수지구 현암로125번길 11 714동 704호 (죽전동, 새터마을죽전힐스테이트)",010-3624-2700,"전문, 과학 및 기술 서비스업",경영 컨설팅업,37.3341211,127.1222006
cab662cf-4447-4f9d-8e1f-f9aff35f0e20,(주)에이치알파트너,한경용,법인,821-86-00871,경기도 구리시 갈매순환로 212,"11901 경기도 구리시 갈매순환로 212 , 502호(갈매동, 에이원프라자)",031-559-9014,부동산업,부동산 컨설팅,37.6380093,127.1210314
5880914d-3d75-4be4-91f1-f5522051a784,(주)에이치에스도시개발,조민지,법인,585-81-01381,부산 동래구 반송로 352 지하(명장동,"47766 부산 동래구 반송로 352 지하 105호(명장동,훈창빌딩)",010-5390-9790,건 설 업,주거용 건물 건설업,35.2100859,129.1051539
e2f3d06b-0c36-466e-98fd-d5c6c7777324,(주)에이치에스도시개발-21년수정,조민지,법인,585-81-01381,부산광역시 동래구 충렬대로410번길 70,"47894 부산광역시 동래구 충렬대로410번길 70 , 2층(안락동)",010-5390-9790,건 설 업,아파트 건설업,35.1938435,129.101635
8cab7839-a21b-4d52-b176-7900336dce02,(주)에이치에스디벨롭,이진규,법인,175-86-01985,경기 용인시 처인구 백암면 백암로 31-14,17180 경기 용인시 처인구 백암면 백암로 31-14 (백봉리),010-6479-1129,도매 및 소매업,"의류, 잡화",37.1512439,127.3842679
a48caf9b-0031-4c6b-b086-8c7db4bcf18f,(주)엠에이치개발,황명호,법인,814-87-00939,서울구 왕십리로 58(성수동1가,"04778 서울 성동구 왕십리로 58 8층 806호(성수동1가, FORHU)",010-5680-8245,부동산업,컨설팅,37.5389521,127.0487909
b1cbfb79-1a9f-469a-814b-83a2b4f466fb,(주)엠에이치개발_본지점통합,황명호,법인,814-87-00939,서울특별시구 성수일로 26,04780 서울특별시 성동구 성수일로 26 2층 (성수동1가),010-5680-8245,부동산업 및 임대업,부동산 자문 및 중개업,37.5428423,127.049244
a0175ce2-e998-412e-b5ac-8f151e553242,(주)와이엠벤처스,정문위,법인,668-81-00182,서울특별시 서초구 강남대로23길 88 B1 (양재동,"06754 서울특별시 서초구 강남대로23길 88 B1 (양재동, 정문위소호하우스)",02-576-2450,금융 및 보험업,기타 금융 투자업,37.47431419999999,127.0354915
14ef0e4d-fc54-4cbb-9c77-929009bac07a,(주)와이플랜,김정관,법인,771-81-00362,인천광역시 중구 백운로186번길 97-44,22357 인천광역시 중구 백운로186번길 97-44 (운북동),010-4872-4992,부동산업,부동산중개업,37.5109287,126.5413693
afb9b689-8afa-4738-ace0-69160b62ad5f,(주)우람기획,신동한,법인,188-87-02008,경기도 화성시 금반1길 14-17,18440 경기도 화성시 금반1길 14-17 비01호 (반송동),010-9908-7480,부동산업 및 임대업,부동산매매업,37.1882965,127.069698
327c7975-7381-4d85-8016-ccc54ce87e0b,(주)우주회,강도회,법인,518-88-03132,서울특별시 서초구 강남대로18길 24-12,06779 서울특별시 서초구 강남대로18길 24-12 2층 (양재동),010-6222-7855,"전문, 과학 및 기술 서비스업",경영 컨설팅업,37.4714935,127.0400728
1591abfc-de2e-4eb4-a947-e915ff23510b,(주)윈웍스,이준규,법인,872-86-01688,경기 성남시 수정구 위례서일로 10 (창곡동,"13647 경기 성남시 수정구 위례서일로 10 903호 (창곡동,슈퍼스타타워)",010-6479-1129,도매 및 소매업,잡화,37.46544859999999,127.1370395
3f5d28a9-91dd-4fcc-945d-e1ee14ce17b3,(주)유앤디개발,박동원,법인,609-87-00716,경기도 성남시 분당구 성남대로 926(야탑동,"13506 경기도 성남시 분당구 성남대로 926 2층 202호(야탑동, 분당메트로)",010-7329-7329,부동산업,부동산컨설팅,37.4125741,127.1292728
73e9cd99-4506-4f10-8ce7-6971f75a0bd2,(주)유앤아이플래닝,현인호,법인,296-88-03208,경기도 파주시 가람로116번길 107 (와동동,"10896 경기도 파주시 가람로116번길 107 10층 1029호 (와동동, 운정한강듀클래스)",010-5391-5141,건 설 업,"도배, 실내 장식 및 내장 목공사업",37.7328597,126.7665164
c73c7bf4-a7ed-41d3-8b65-1b0f5644c22a,(주)윤달,오대석,법인,634-86-03105,경기도 성남시 분당구 판교로25번길 6-2,13467 경기도 성남시 분당구 판교로25번길 6-2 1층(운중동),010-2307-7732,음식점업,한식,37.3896741,127.0847638
513999a2-6651-4b23-9137-12b32771e350,(주)이한진의 푸른참치,인정숙,법인,312-86-78138,경기도 성남시 분당구 성남대로331번길 3-9 308(정자동,"13558 경기도 성남시 분당구 성남대로331번길 3-9 308(정자동, 백궁프라자3)",010-7270-0224,음식및숙박업,"일식음식점,참치",37.3648432,127.1076932
bc9e72af-06cc-48f0-934c-80976b125445,(주)인정,이금정,법인,343-81-01055,경기 성남시 중원구 사기막골로 99 2차 1302,"13201 경기 성남시 중원구 사기막골로 99 성남센트럴비즈타워 2차 B동 1302,1303,1304호 (상대원동)",010-2756-5805,제조업,"잡화,양말,악세사리,기타섬유제조",37.4408765,127.176722
fab1c895-5ae6-43c9-9794-d7f2df455fe9,(주)일구칠,김윤숙,법인,872-87-01972,경기도 광주시 신현로 12-204 (신현동,"12771 경기도 광주시 신현로 12-204 G동 202호 아이브하우스 (신현동, 아이브하우스)",010-9290-6529,부동산업,주거용 건물 개발 및 공급업,37.3535368,127.1484151
5c3e33f3-ba5a-41f2-bf66-1f35464b5ab1,(주)재원이엔씨,안선영,법인,723-88-01186,경기도 시흥시 하중로231번길 9,14976 경기도 시흥시 하중로231번길 9 102호 (하중동),010-8254-6782,건 설 업,"상하수도 설비공사, 유지보수공사,비굴착보수공사(전체보수,부분보수), 준설공사",37.3915682,126.8072352
e783a999-da88-4215-92fe-af1be340bd63,(주)제씨,강재식,법인,212-81-40846,서울특별시 송파구 송파대로30길 13,05711 서울특별시 송파구 송파대로30길 13 지음빌딩 지하 1층(가락동),02-402-8277,부동산업,임대,37.4948581,127.1188127
720e1a3f-dadd-440b-8be4-e19ec3b8bed7,(주)제이에이건설,이다정,법인,225-81-29094,경기도 성남시 분당구 성남대로 30 502-A22호 (구미동,"13637 경기도 성남시 분당구 성남대로 30 5층 502-A22호 (구미동, 동아그린프라자)",010-2793-2642,건 설 업,시설물 유지관리 공사업,37.3437715,127.1194183
24c5bdb6-0c51-4412-ab70-405e6b40c8f6,(주)제이제이코리아,장종태,법인,375-81-01071,서울 영등포구 당산로 240(당산동6가,"07223 서울 영등포구 당산로 240 1층(당산동6가,유상빌딩)",010-5589-8383,도매 및 소매업,"문구용품, 회화용품, 사무용품 도매업",37.5346602,126.9028802
4fbfce62-9702-4597-830e-2b1581211d5e,(주)제이홀딩스,이승진,법인,142-81-71851,경기도 용인시 수지구 상현로 5 (상현동,"16938 경기도 용인시 수지구 상현로 5 403호 (상현동, 상현프라자)",010-2407-2657,부동산업,주거용 건물 개발 및 공급업,37.3030271,127.0748666
b268278e-5541-424e-b952-86ff7beab7f4,(주)참정보통신,신태식,법인,129-81-51978,경기 성남시 분당구 성남대로926번길 10,13506 경기 성남시 분당구 성남대로926번길 10 (야탑동),031-781-6000,서비스,"통신및전기유지보수, 기술용역",37.4125707,127.1298502
7fd23a97-b037-4ca8-98d9-c45c2827adbf,(주)참좋은고깃간,송용찬,법인,622-88-01490,경기도 안산시 상록구 예술광장로 7,15288 경기도 안산시 상록구 예술광장로 7 104호 (월피동),010-5442-2271,도매 및 소매업,"식육, 정육",37.3288894,126.8449432
9f0f494f-694e-4f30-be6a-127113a8789b,(주)천경종합건설,이경자,법인,513-81-51659,경기도 화성시 봉담읍 와우안길 109,18298 경기도 화성시 봉담읍 와우안길 109 110동 210호 (화성공구유통밸리),010-3121-4377,건설업,조경공사,37.2220347,126.9738303
777b210b-ec9d-42af-bf84-c905e1507635,(주)케이더블유엠앤씨,김현진,법인,170-86-02636,서울특별시 강남구 언주로 110 (개포동,"06317 서울특별시 강남구 언주로 110 8동 1208호 (개포동, 경남아파트)",010-4243-1430,"전문, 과학 및 기술 서비스업",인테리어 디자인업,37.4819334,127.0732322
ac32fca0-5950-43f8-bb2b-e26ff7b89dda,(주)코드랩360,민선홍,법인,509-86-02886,서울특별시구 성수이로 66(성수동2가,"04784 서울특별시 성동구 성수이로 66 906호(성수동2가, 서울숲드림타워)",010-3638-9261,정보통신업,응용 소프트웨어 개발 및 공급업,37.5405547,127.0561825
d4461829-79b3-4b32-b4dc-6d84f3c40288,(주)트리플아이앤디,김경동,법인,224-88-00128,경기 과천시 과천대로7나길 60,13840 경기 과천시 과천대로7나길 60 C동 120호,02-786-0222,건 설 업,아파트 건설업,37.432265,126.994741
17cc3956-fc70-4ec8-9ad6-6581c8296d9a,(주)티알앤디에프뉴스,김재영,법인,643-87-00773,서울 영등포구 국회대로38길 8(당산동3가,"07257 서울 영등포구 국회대로38길 8 4층 403호(당산동3가,문화빌딩)",010-3896-5092,정보서비스(출판/영상/방송통신)업,"인터넷신문사업,경영컨설팅업외",37.523662,126.9002856
a78f1be0-93ac-4377-9bf8-7cbb36a9f59f,(주)티엠알앤디,장정환,법인,735-87-01182,경기 성남시 중원구 갈마치로 314(상대원동,"13201 경기 성남시 중원구 갈마치로 314 1005호(상대원동,성남 센트럴비즈타워 1)",010-3265-9344,"전문, 과학 및 기술 서비스업",건물 및 토목 엔지니어링 서비스업,37.4419252,127.1716336
10b046a0-b6e7-45ca-868e-4df91ff1be8a,(주)티피에스컴퍼니,김현철,법인,114-86-56767,서울특별시 마포구 성산로8길 36,03966 서울특별시 마포구 성산로8길 36 (성산동),02-2135-1570,서비스,"영화제작, 제작대행",37.56365479999999,126.912196
a6d26388-e61a-4b42-b2e7-4bcc72d8a2bb,(주)파워체스에듀,이동수,법인,676-88-00222,경기도 하남시 미사대로 550(덕풍동,"12925 경기도 하남시 미사대로 550 에이동 961호(덕풍동, 현대지식산업센터한강미사)",010-3771-3540,제조업,"보드게임,완구",37.534265,127.1976915
5fcf36aa-4cc4-4650-bd15-e10df4373091,(주)퍼스트원,이미화,법인,751-88-01987,경기 성남시 중원구 박석로25번길 29,13226 경기 성남시 중원구 박석로25번길 29 101호 (상대원동),010-4149-7165,건 설 업,시설물 유지관리 공사업,37.4350933,127.1626935
0017a6b5-0496-46ec-ac52-29f9e47b3299,(주)포유개발,박교성,법인,896-87-02114,경기도 포천시 소흘읍 호국로287번길 17-30,"11184 경기도 포천시 소흘읍 호국로287번길 17-30 , 5동 202-1호",010-5391-5141,부동산업.건설업,비주거용 건물 임대업.시설물유지관리,37.8005983,127.1246261
4d59d3e8-2a4a-4d0f-88ef-5671ffc9fd54,(주)풍환코퍼레이션,장정숙,법인,144-81-21056,경기도 성남시 분당구 성남대로916번길 11 (야탑동,"13506 경기도 성남시 분당구 성남대로916번길 11 48호 (야탑동, 글라스타워 4층)",010-8760-1992,도매 및 상품중개업,전선케이블/전기용기계장비/전기/전자부품 수출입업,37.41086,127.1298407
7a1f4d4d-5573-47cf-8533-e657e3806577,(주)플러쉬퍼피코리아,천정민,법인,864-81-01265,경기도 성남시 분당구 정자일로156번길 12(정자동,"13558 경기도 성남시 분당구 정자일로156번길 12 3003호(정자동,타임브릿지)",010-4046-1369,도매 및 소매업,애완용 동물 및 관련용품 소매업,37.3638525,127.1072361
ac554381-402b-4534-98ce-12a6c559d945,(주)플러쉬퍼피코리아-지점,천정민,법인,646-85-02437,경기도 용인시 처인구 원삼면 미평로 98,17166 경기도 용인시 처인구 원삼면 미평로 98,010-4046-1369,도매 및 소매업,애완용 동물 및 관련용품 소매업,37.1832971,127.326299
e01c3e21-0b99-44b6-a884-a881e015aa82,(주)허니잼이엔티,김태욱,법인,467-87-00688,서울특별시 마포구 월드컵북로48길 29-5 (상암동,"03927 서울특별시 마포구 월드컵북로48길 29-5 6층 (상암동, 마음빌딩)",02-303-5693,서비스,방송프로그램제작,37.5772696,126.8950375
1626621e-c942-42c4-9d26-97e7c97ff4d8,(주)허니잼이엔티(2024),김태욱,법인,467-87-00688,서울특별시 마포구 월드컵북로 3612단지 오피스동(상암동,"03908 서울특별시 마포구 월드컵북로 361 이안상암2단지 오피스동 10층(상암동, DMC",02-303-5693,서비스,방송프로그램제작,37.5727844,126.8982035
9fc7f66d-4d11-439f-b2b0-df6488a60fd3,103스타일(장영옥),장영옥,개인,221-09-36511,강원도 춘천시길 2-1(중앙로2가,"24353 강원도 춘천시 명동길 2-1 1층(중앙로2가,명동빌딩)",010-6264-9609,소매업(자동자제외),외의,37.8800038,127.7278385
cb7b8373-9e9d-45c2-b8bc-d1a17c18efa3,103스타일(조예지),조예지,개인,390-15-00488,강원특별자치도 원주시 중앙로 115,26428 강원특별자치도 원주시 중앙로 115 (중앙동),010-4151-9609,소매업,"의류,속옥",37.3498769,127.9503009
b5be8f8e-f2fc-40d9-af90-6d343fd6fc68,103스타일(춘천지하),장영옥,개인,832-16-01009,강원특별자치도 춘천시 중앙로 33,24271 강원특별자치도 춘천시 중앙로 33 지하상가 라동 47호 48호(중앙로1가),010-8829-9609,도매 및 소매업,셔츠 및 블라우스 소매업,37.8824688,127.7289916
3835f937-75dc-436d-a2a9-953dad3e08da,33떡볶이 김포감정점,오대원,개인,725-26-00720,경기도 김포시 중봉1로 10(감정동,"10104 경기도 김포시 중봉1로 10 1층 101호(감정동, 김포시산림조합)",010-2726-2898,음식점업,분식,37.6224475,126.6991408
aa1311e8-1627-41ec-b8f3-f46084a338e7,365 (삼육오),조예지,개인,540-03-03035,강원특별자치도 춘천시 금강로 지하 64-2 (조양동,"24353 강원특별자치도 춘천시 금강로 지하 64-2 (조양동, 라51-52)",--,도매 및 소매업,셔츠 및 블라우스 소매업,37.8797637,127.7303082
b306e9ff-1710-4408-802b-99a6e66f40c9,3POP PC방(거모동)-김영두외1,김영두외1명,개인,122-15-83912,경기도 시흥시 도일로 119(거모동,"15070 경기도 시흥시 도일로 119 3층(거모동, 월드프라자)",010-7110-0587,서비스(예술/스포츠 및 여가관련)업,인터넷PC방,37.34109830000001,126.7835101
0db43154-8595-4221-a8fe-b0d85615fcb3,3POP PC방(이문동)-김미성,김미성,개인,889-06-00540,서울특별시 동대문구 휘경로 15,02419 서울특별시 동대문구 휘경로 15 3층(이문동),010-9085-3535,서비스(예술/스포츠 및 여가관련)업,인터넷PC방,37.5959145,127.061973
7ef2a9fc-c74a-4c1e-9b99-1e9455ff104f,3POP PC카페(복대)-조봉기,조봉기,개인,261-09-00724,충청북도 청주시 흥덕구 대농로 47-1,28425 충청북도 청주시 흥덕구 대농로 47-1 (복대동),010-8836-3805,서비스,인터넷PC방,36.6430295,127.4291934
cc9706dd-a9e0-457f-9126-390711e3b369,3POP석남점-변진원,변진원,개인,219-04-95282,인천광역시 서구 가정로 216(석남동,"22791 인천광역시 서구 가정로 216 301-1호(석남동, 신화메트로타운)",010-5403-0117,음식점업,분식,37.5041003,126.6724195
620d0875-4a68-40c2-a302-6d1a5300769f,3pop pc방(봉천)-박찬수,박찬수,개인,878-27-01471,서울특별시 관악구 남부순환로 1716(봉천동,"08784 서울특별시 관악구 남부순환로 1716 지하1층 (봉천동, 은혜빌딩)",010-2772-4370,"예술, 스포츠 및 여가관련 서비스업",PC방,37.4825304,126.9405866
17f84540-2411-427b-8781-d25bdb6b67f5,3pop pc방(사동)-손재형,손재형,개인,614-25-00248,경기도 안산시 상록구 성안길 78-3(사동,"15577 경기도 안산시 상록구 성안길 78-3 201-203호(사동, 라라캠퍼스)",010-2054-8803,서비스업,인터넷PC방,37.3009803,126.8378807
4acf51da-f30b-4e95-94e3-8e382df87660,5번출구 피씨방(김병주),김병주,개인,674-18-00882,서울특별시 광진구 아차산로 244,05073 서울특별시 광진구 아차산로 244 지하1층 (자양동),010-4477-4860,서비스,컴퓨터 게임방 운영업,37.5396831,127.070206
b24c7a01-6b5a-46b2-ae92-b95ac31e0429,5스타PC방(석남)-장택준,장택준,개인,535-57-00359,인천광역시 서구 신석로 74-1(석남동,"22789 인천광역시 서구 신석로 74-1 지하1층(석남동, 이화아파트)",010-2772-4370,서비스업,PC방,37.5097681,126.6702082
1f7d90fb-8116-45b7-8bd2-9baa8729d847,7세븐 피씨방(주교),박상율,개인,674-11-02159,경기도 고양시 덕양구 호국로789번길 6(주교동,"10462 경기도 고양시 덕양구 호국로789번길 6 501호(주교동, 중앙빌딩)",010-5451-5359,"예술, 스포츠 및 여가관련 서비스업",컴퓨터 게임방 운영업,37.6570036,126.8360951
406b596c-3290-4c41-8fd5-4e0536dfa544,CS테크,이필구,개인,214-12-32706,서울 서초구 서운로 62,"06629 서울 서초구 서운로 62 , 109동 701호(서초동, 래미안 리더스원)",010-6214-8241,서비스업,연구및개발업,37.4905359,127.0283284
45f1f18c-d6d5-4770-83fb-99b8e98b35ee,DH철거,김대한,개인,366-02-03347,경기도 광주시 태봉로42번길 49-1(태전동,"12784 경기도 광주시 태봉로42번길 49-1 202동 402호(태전동, 화이트캐슬)",010-5810-1710,건 설 업,"내장재철거, 방수공사",37.3899011,127.2254137
9c356a12-7317-4dc5-9ed4-a4862f2951e6,GRITSENKO MAKSIM,GRITSENKO MAKSIM,개인,000-00-00000,부산 기장군 정관읍 용수리 1322,46014 부산 기장군 정관읍 용수리 1322 109동 905호,010-3834-6923,,,35.3256788,129.1759745
cba6f654-c1e2-4d17-a02a-6ef131542a2d,HM편의점,김금란,개인,129-26-46933,경기 성남시 분당구 운중로126번길 8,13466 경기 성남시 분당구 운중로126번길 8 102-1호 (운중동),010-4346-1420,소매업(자동자제외),연쇄점/편의점,37.39083410000001,127.0769444
31e470eb-85e5-427b-972c-40c9b06c37e4,KIM JOSEPH HYUNG IN,KIM JOSEPH HYUNG IN,개인,000-00-00000,경기도 고양시 덕양구 권율대로 690,10558 경기도 고양시 덕양구 권율대로 690 605호(원흥동),010-7997-5854,"협회 및 단체, 수리 및 기타 개인서비스","자문,감독,지도료,고문료,교정료",37.6507738,126.8753006
60a184c0-3aac-49b3-8364-cc9285e1fb6f,L&S아이랑발달지원센터-이상훈,이상훈,개인,129-92-81987,경기도 성남시 중원구 희망로353번길 3,13399 경기도 성남시 중원구 희망로353번길 3 3층(상대원동),010-6804-4416,교육서비스업,위탁교육훈련서비스,37.4371561,127.1577148
3eb93df7-101d-4b04-8413-f737bbbb0731,LA CHATTE(라샤뜨),이경은,개인,129-31-46223,경기도 용인시 기흥구 죽전로15번길 8-11,16897 경기도 용인시 기흥구 죽전로15번길 8-11 (보정동),010-5521-9285,소매업,의류,37.3213714,127.110808
b3eaa053-5a42-46e8-b9e5-698ca0b5e9ab,MVP선교회,김계원,개인,105-89-02948,서울특별시 마포구 성산로 124(성산동,"03965 서울특별시 마포구 성산로 124 5층(성산동, 덕성빌딩)",--,,,37.5638729,126.9074897
3f5af742-0679-4702-ac36-ef3616a535ca,SAP(NC백화점),송하섭,개인,110-13-25119,서울특별시 은평구 불광로 20(대조동,"03397 서울특별시 은평구 불광로 20 4층(대조동, NC백화점)",010-3813-1277,서비스,판매대리,37.609721,126.9290038
1d5efc73-2173-46bf-bd22-01a2259ac46a,SH태양광발전소(손덕승),손덕승,개인,142-03-75655,경기도 용인시 처인구 백암면 근삼로 40,17181 경기도 용인시 처인구 백암면 근삼로 40 (삼화산업),010-3371-6112,"전기, 가스, 증기 및 공기 조절 공급업",태양력 발전업,37.1335468,127.3681565
b93178f3-96b6-4a40-8df8-f26deb8cf4b9,SM복싱클럽2관-홍성원,홍성원,개인,117-91-44167,서울특별시 양천구중앙북로 21 지하,07946 서울특별시 양천구 목동중앙북로 21 지하(목동),010-8705-7920,교육서비스업,스포츠교육기관,37.5010068,126.8746679
d02c1e1d-ee1f-4e6e-97df-53cbd8684e53,T edge 샘플회사,이석제,법인,129-81-68431,경기도 성남시 분당구 성남대로 912(야탑동,"13506 경기도 성남시 분당구 성남대로 912 515호(야탑동, 분당BYC빌딩)",031-783-8877,서비스,세무사,37.4109673,127.1292458
e52b5b23-4652-4a25-a7e5-715346906923,[x]에스케이씨컨설팅,신광철,개인,768-44-00997,경기도 성남시 수정구 위례순환로 17(창곡동,"13121 경기도 성남시 수정구 위례순환로 17 3103동 712호(창곡동, 위례31단지)",010-7707-7675,"전문, 과학 및 기술 서비스업",경영 컨설팅업,37.4731605,127.1345252
cab3ed93-82a0-48af-98c0-4a33c816e9c7,k2(케이투)내장건업,박준호,개인,673-12-00441,경기도 광주시 오포읍 봉골길 104,12774 경기도 광주시 오포읍 봉골길 104,031-761-9464,건설업,배관난방공사/기계설비공사/전기공사/통신공사,37.3539691,127.2049895
0226c643-a5cd-4835-9a0d-548af9b4f90b,가나안교회,박상호,개인,616-82-18368,제주특별자치도 서귀포시 표선면 성읍이리로47번길 11,63624 제주특별자치도 서귀포시 표선면 성읍이리로47번길 11 (가나안교회),--,,,33.4152741,126.7711185
206142e0-a1f0-4f06-a686-5e9ca47a6d58,가나안교회,김충구,개인,125-89-04111,경기도 평택시 송탄2로9번길 29,17765 경기도 평택시 송탄2로9번길 29 (서정동),--,,,37.0729738,127.0556081
9ae04ba4-62eb-4ba1-9bcc-8370381aa0a5,가나안교회,김성희,개인,310-89-00464,충청남도 서산시 대산읍 물안2길 42,31907 충청남도 서산시 대산읍 물안2길 42 가나안교회,--,,,36.9700555,126.4128947
f2813693-0e67-4423-a32e-c9e43ddc0f41,가나안교회,김의철,개인,221-82-63141,강원특별자치도 춘천시 영서로 2827-9,24235 강원특별자치도 춘천시 영서로 2827-9 (사농동),--,,,37.9044768,127.7247342
b0d1b0cc-a344-4e35-a7f4-1fe247d1a73c,가나안교회,신진화,개인,131-82-63697,인천광역시 연수구 새말로36번길 16,21919 인천광역시 연수구 새말로36번길 16 (연수동),--,,,37.421689,126.6743524
0f80b373-53cf-4a01-ae6b-0c2ea86509ed,가나안아카데미,신민주,법인,403-82-88502,인천광역시 연수구 센트럴로 440-8 (송도동,"22019 인천광역시 연수구 센트럴로 440-8 (송도동, 송도가나안교회)",010-7414-9904,,,37.3606183,126.6714016
63e4bee6-506d-4e89-9eac-1d4893831db2,가스펠시티교회,YOON JOEL,개인,812-89-00034,서울특별시 용산구 두텁바위로 69,04336 서울특별시 용산구 두텁바위로 69 (후암동),--,,,37.5462919,126.9799539
ca081990-d7b5-4591-a423-a7b958310ffb,가야유통,김현관,개인,403-09-83561,전라북도 익산시 부송동 1056,570360 전라북도 익산시 부송동 1056,010-8486-7777,도소매,식료품및잡화,35.9537232,126.9939639
e033314e-161c-4727-b18b-98138cc57c33,가온교회,오세욱,개인,124-82-67211,경기도 화성시 봉담읍 삼천병마로 1321-10,18312 경기도 화성시 봉담읍 삼천병마로 1321-10 301호(동남메리트아파트),--,,,37.2229196,126.9498623
5a86b207-df01-4b7e-b8c7-d8cc091990cc,가온푸드서비스(주),백미영,법인,142-81-49664,경기도 용인시 기흥구 지삼로 365-8 (지곡동,"17088 경기도 용인시 기흥구 지삼로 365-8 (지곡동, 가동)",031-202-8002,도소매/서비스,식자재/식당운영컨설팅,37.2331028,127.1488148
28f511e8-9402-4a21-955e-716869c77add,가자엠코,최경원,개인,233-90-03710,경기도 광주시 순암로 536-5,12767 경기도 광주시 순암로 536-5 (삼동),010-3174-5821,도매 및 상품중개업,축산물(일반),37.4120145,127.196153
90451318-0bf9-44e3-ba97-4d198ac80628,가치이룸 사회적협동조합,김종출,법인,452-82-00513,인천광역시 계양구 장제로1025번길 29-3,21020 인천광역시 계양구 장제로1025번길 29-3 1층 (박촌동),010-2002-4656,음식점업,"브런치카페, 양식",37.5572539,126.742554
a4c24baa-9eac-499f-acf2-a2f58c98dc77,가현교회,정연식,개인,125-82-64217,경기도 안성시 보개면 보삼로 191-1,17506 경기도 안성시 보개면 보삼로 191-1,--,,,37.1009573,127.3326878
94b939e2-5b38-4b65-af19-13483cfa2368,갈릴리교회,이성지,개인,109-82-81096,경상남도 창원시 마산합포구 산호남10길 37 (산호동,"51331 경상남도 창원시 마산합포구 산호남10길 37 (산호동, 마산갈릴리교회)",--,,,35.2146707,128.585315
03a10682-5cb6-4e04-8c96-dbde7593aee7,갈릴리교회,강훈식,개인,117-82-72526,전북특별자치도 전주시 덕진구 송천3길 50 (송천동1가,"54833 전북특별자치도 전주시 덕진구 송천3길 50 (송천동1가, 제일아파트)",--,,,35.8604328,127.1156301
f359be19-98ab-4739-8957-7238be17931f,갈산제일감리교회,최문호,개인,310-89-00445,충청남도 홍성군 갈산면 갈산로121번길 27,32202 충청남도 홍성군 갈산면 갈산로121번길 27,--,,,36.6047206,126.5524912
c82da5f4-ed7b-4630-8175-c37b5c6b41a7,감불7태양광발전소(윤소연),윤소연,개인,356-37-00442,전라북도 부안군 보안면리 14-8,"579873 전라북도 부안군 보안면 우동리 14-8 , 43-1",010-3679-5257,"전기, 가스, 증기 및 공기 조절 공급업",태양력 발전업,35.620452,126.6652663
fa02be45-b425-4787-ad04-28a93266b62d,갓플리징교회,최용진,개인,217-82-78285,광주광역시 광산구 산정공원로60번길 22,62333 광주광역시 광산구 산정공원로60번길 22 (월곡동),--,,,35.1726053,126.8073052
575afd4c-5707-4d9e-8c4c-ec622d5462ff,강경애,강경애,개인,000-00-00000,서울특별시 송파구 백제고분로40길 19,05686 서울특별시 송파구 백제고분로40길 19 (석촌동),--,,,37.5029976,127.1070525
0e11da14-e675-41af-8f15-da981311b52d,강덕기,강덕기,개인,000-00-00000,서울특별시 구로구 구로중앙로7길 28(구로동,"08312 서울특별시 구로구 구로중앙로7길 28 2동 409호(구로동, 극동아파트)",--,"협회 및 단체, 수리 및 기타 개인서비스",퀵서비스배달원,37.4910324,126.8898168
b0683b4e-b3ea-4c80-ae6e-9ee65dd13a6b,강도회외1인_강도회,강도회,개인,214-12-35756,서울시 서초구 양재동 313-3,서울시 서초구 양재동 313-3,010-8613-9128,부동산,임대,37.4714935,127.0400728
26f0ca07-5962-4182-9716-2c1f13867fa2,강도회외1인_공동,강시현,개인,214-12-35756,서울 서초구 양재2동 313-3,137896 서울 서초구 양재2동 313-3,--,부동산업,점포(자기땅),37.4714935,127.0400728
51e41935-abe8-459d-8644-36e08789e8ee,강릉교회,이상진,개인,226-89-00024,강원특별자치도 강릉시 임영로 160 (임당동,"25529 강원특별자치도 강릉시 임영로 160 (임당동, 강릉교회)",--,,,37.7557932,128.8943897
a6095bb6-68c1-414e-adcb-d53b28c302f4,강릉벧엘교회,공보균,개인,226-82-63151,강원특별자치도 강릉시 초당원길 63-1 (초당동,"25469 강원특별자치도 강릉시 초당원길 63-1 (초당동, 강릉벧엘교회)",--,,,37.7867879,128.9137884
ee83b434-3876-44b2-9887-89d7aa8b65a3,강릉성덕성결교회,김호영,개인,226-82-62448,강원특별자치도 강릉시 율곡로 2692,25583 강원특별자치도 강릉시 율곡로 2692 (입암동),--,,,37.7482198,128.9089568
df3f7cdd-3d68-42aa-b19d-7e5f7e5736c8,강릉영산감리교회,서선혜,개인,226-89-03924,강원특별자치도 강릉시 성덕포남로152번길 18-1,25570 강원특별자치도 강릉시 성덕포남로152번길 18-1 (포남동),--,,,37.7667452,128.9132337
86d37f17-ac28-4009-ab23-ce0f7d5480b6,강릉중앙교회,윤창섭,개인,226-82-62735,강원특별자치도 강릉시 성덕포남로213번길 20,25488 강원특별자치도 강릉시 성덕포남로213번길 20 (포남동),--,,,37.76894420000001,128.9045878
c428e0e7-ce0d-452a-902e-3a4ba682e793,강민구,강민구,개인,000-00-00000,경기도 성남시 분당구 야탑로 20 (야탑동,"13522 경기도 성남시 분당구 야탑로 20 116동 403호 (야탑동, 탑마을선경아파트)",010-3775-2242,"협회 및 단체, 수리 및 기타 개인서비스",기타자영업,37.4077859,127.1213057
f7df2e40-d3c3-4bee-ac9f-bb9183d5a9ff,강민수임대(901호),강민수,개인,613-32-91856,경기도 수원시 팔달구 정조로 667II,16467 경기도 수원시 팔달구 정조로 667 마이온프라자II 9층 901호(매교동),010-2634-0714,부동산업,"비주거용 건물 임대업(점포, 자기땅)",37.2760021,127.0155369
4e05cb52-d733-47e4-b0bf-55a0338138db,강변동숭교회,김성우,개인,381-89-00020,경기도 남양주시 고산로126번길 18-9 (수석동,"12268 경기도 남양주시 고산로126번길 18-9 (수석동, 동부명성교회)",--,,,37.5929846,127.1789519
051d0435-ac87-4b39-8fbf-940e4983a5c1,강성루원교회,권영호,개인,412-82-70632,인천광역시 서구 봉오재3로 66903호(가정동,"22858 인천광역시 서구 봉오재3로 66 114동903호(가정동, 루원시티프라디움)",--,,,37.5286725,126.6688647
e433ee7d-d7df-48c6-8090-69e45d9d2665,강소교회,김사무엘,개인,305-82-74567,대전광역시 중구 대둔산로 447-1,34988 대전광역시 중구 대둔산로 447-1 (산성동),--,,,36.3091412,127.3874654
257b4e4f-6abf-40c4-b60e-a9eb32866a9d,강순영 / 빈,강순영,개인,000-00-00000,울산광역시 남구 거마로 124 (신정동,"44650 울산광역시 남구 거마로 124 101동 1405호 (신정동, 디아채)",010-3639-3247,서비스(사회/수리및개인)업,행사도우미,35.5396232,129.3040595
56788c4c-16a2-46ba-9769-e46bf247826d,강신근부동산,강대빈,개인,124-43-21424,경기도 오산시 경기대로 198 (원동,"18144 경기도 오산시 경기대로 198 (원동, 시네아울렛)",010-6293-3591,부동산업 및 임대업,"비주거용 건물 임대업(점포, 자기땅)",37.1412516,127.082662
dc3078e8-297e-42a7-a6da-33aba9bab889,강원철,강원철,개인,201-04-43269,경기도 용인시 처인구읍 백옥대로621번길 11,17129 경기도 용인시 처인구 이동읍 백옥대로621번길 11 104호(샘골마을풍성신미주아파트1단지),--,부동산업,"비주거용 건물 임대업(점포, 자기땅)",37.1923698,127.2045042
60888324-73df-4336-a24b-bdd35cfabc0c,강윤덕부동산,강윤덕,개인,132-27-55610,경기도 구리시 아치울길3번길 3,경기도 구리시 아치울길3번길 3 (아천동149-24),010-8627-9166,부동산업,점포(자기땅),37.5732825,127.1214688
d232227d-58f1-445b-b3ef-ff4067ab253d,강윤자 /신한,강윤자,개인,000-00-00000,제주특별자치도 서귀포시 동홍로8번길 12-1,63590 제주특별자치도 서귀포시 동홍로8번길 12-1 202호(서귀동),010-3400-5577,"협회 및 단체, 수리 및 기타 개인서비스",기타자영업,33.2488383,126.5689773
1731e6b9-9747-411e-8733-eedb14179a6e,강인덕임대,강인덕,개인,154-34-00938,경기도 구리시 아치울길3번길 21-15,11956 경기도 구리시 아치울길3번길 21-15 (아천동149-18),--,부동산업,"비주거용 건물 임대업(점포, 자기땅)",37.57296890000001,127.1209863
19998215-4810-4155-a873-458b8b1cf3db,강정남,강정남,개인,000-00-00000,경상남도 의령군 용덕면 용암로7길 23,52127 경상남도 의령군 용덕면 용암로7길 23,--,,,35.3882007,128.2744342
e204cf29-4134-4e3f-b859-e726de8ef818,강정옥(수내동코리아나 312호),강정옥,개인,129-21-57207,경기도 성남시 분당구 황새울로258번길 32(수내동,"13595 경기도 성남시 분당구 황새울로258번길 32 312호(수내동, 코리아나빌딩)",070-8628-0226,부동산업,임대,37.3795517,127.1162582
27e386e9-c561-4f66-a25b-8a8013c38ecd,강정은 / 기업,강정은,개인,000-00-00000,인천광역시 미추홀구 석정로329번길 25(도화동,"22116 인천광역시 미추홀구 석정로329번길 25 나동 201호(도화동, 건우VIP맨션)",--,"협회 및 단체, 수리 및 기타 개인서비스","기타모집수당,채권회수수당",37.4685401,126.6710816
c30a444e-0cc3-432e-a582-174f9df4832c,강지은임대,강지은,개인,132-24-88314,경기 남양주시 오남읍 양지로대대울2길 40 다-2,472880 경기 남양주시 오남읍 양지로대대울2길 40 다-2,010-6253-1692,부동산업,점포(자기땅),37.6993016,127.183722
c23120bf-6372-4927-92f9-ecd4c89a054f,강형구외(로즈지하1층),강형구외,개인,135-13-90356,경기 성남 분당 야탑 382 3,463070 경기 성남 분당 야탑 382 3 지하1층,--,부동산,임대,37.4121235,127.1335866
8e466415-2211-47b4-a031-1c4acd277d0f,개러지 디,김경운,개인,599-16-01363,서울 양천구서로 57 (목동,"07983 서울 양천구 목동서로 57 (목동,현대파리지앙)",010-7177-5652,"사업시설 관리, 사업 지원 및 임대 서비스업",그 외 기타 분류 안된 사업 지원 서비스업,37.5360367,126.8745334
d8bd3967-6806-4184-8d2a-d2240409a01d,개인용달(김동연),김동연,개인,312-07-33330,충청남도 아산시 음봉면 연암율금로564번길 24,31414 충청남도 아산시 음봉면 연암율금로564번길 24,010-9483-6067,운수 및 창고업,용달 화물 자동차 운송업,36.8819204,127.0792154
24e590d2-8a27-4bf8-9765-b5ae43c48d99,거성시스템공조,장홍규,개인,106-09-43988,서울특별시구 둘레23길 5,04777 서울특별시 성동구 둘레23길 5 1층 (성수동2가),010-8620-1362,소매업(자동차제외),에어컨외,37.5354232,127.0585999
039892a1-53d4-4462-99b4-4b030838a8ff,거진성결교회,정현진,개인,227-82-60180,강원특별자치도 고성군 거진읍 거진리 148-51,219901 강원특별자치도 고성군 거진읍 거진리 148-51,--,,,38.4497086,128.4585272
25a69b8f-4466-4c69-8f05-5dd603035bfb,거진제일교회,이기환,개인,210-82-83055,강원특별자치도 고성군 거진읍 푸른고개길 42-4,24719 강원특별자치도 고성군 거진읍 푸른고개길 42-4 (거진제일교회),--,,,38.44491,128.4512737
719ba6aa-6d68-4f66-943c-e3afa6f6fe74,거진중앙교회,김혁,개인,227-82-07036,강원특별자치도 고성군 거진읍 거탄진로 82,24713 강원특별자치도 고성군 거진읍 거탄진로 82 (거진중앙교회),--,,,38.4423299,128.4536392
b98a6018-4396-472e-9b86-80d95fadd8e1,거창온누리교회,김택산,개인,303-82-74033,경상남도 거창군 거창읍 거열로1길 33,50128 경상남도 거창군 거창읍 거열로1길 33 (프로영수전문학원),--,,,35.6921682,127.9139393
e4614948-056e-400c-81d7-51f5f086adb0,건물주 이종세_수내,이종세,개인,129-32-81528,경기도 성남시 (수내동,"13601 경기도 성남시 101호 (수내동, 장터조합상가)",010-000-0000,부동산업 및 임대업,"비주거용 건물 임대업(점포, 자기땅)",37.3727376,127.1228562
9e1d7120-03b7-4f1a-86e1-4cfb1720609b,건물주 이종세_공동,김정옥,개인,878-01-01393,경기도 성남시 분당구 느티로69번길 11,13610 경기도 성남시 분당구 느티로69번길 11 (정자동),010-000-0000,부동산업 및 임대업,"비주거용 건물 임대업(점포, 자기땅)",37.3695941,127.1122305
90bb80ab-e86f-485f-b608-3b8f0340824f,건물주(김형복),김형복,개인,129-38-41756,경기도 성남시 수정구 복정로20번길 3,13119 경기도 성남시 수정구 복정로20번길 3 (복정동),010-5318-7881,부동산업,"비주거용 건물 임대업(점포, 자기땅)",37.45487749999999,127.127773
481b97ee-8bcc-473b-9364-f7d617b2475f,건물주(박청자),박청자,개인,219-07-00898,서울특별시 송파구 백제고분로18길 25,05578 서울특별시 송파구 백제고분로18길 25 (잠실동),010-6349-3439,부동산업,"비주거용 건물 임대업(점포, 자기땅)",37.5028355,127.084187
eb65c479-1171-4f2f-8bd4-5958c5b51d66,건물주(서현상가)-최정자,최정자,개인,129-07-83280,경기도 성남시 분당구 불정로420번길 20-1,13578 경기도 성남시 분당구 불정로420번길 20-1 (서현동),031-783-8877,부동산업,"비주거용 건물 임대업(점포, 자기땅)",37.3752709,127.1415788
df1df7a6-6007-4939-bf16-e00ddbbea00e,건오인테리어,김인권,개인,544-61-00438,인천광역시구 장승남로81번길 16 (만수동,"21593 인천광역시 남동구 장승남로81번길 16 5동 602호 (만수동, 진흥아파트)",--,건 설 업,"도배, 실내 장식 및 내장 목공사업",37.4442055,126.7420506
a24d3462-056d-43ca-85b3-c05f8564c5a2,검단명성교회,이일환,개인,137-82-69345,인천광역시 서구 완정로 31 (마전동,"22639 인천광역시 서구 완정로 31 603호 (마전동, 동아프라자)",--,,,37.5953957,126.6704919
9c1623e8-014b-4770-abe0-4d642641362e,검단목천교회,이희섭,개인,137-82-68685,인천광역시 서구 완정로65번길 5 (마전동,"22639 인천광역시 서구 완정로65번길 5 601호 (마전동, 한뫼프라자)",--,,,37.5966695,126.6676175
ccc1c794-8e69-4dce-86cc-493179fee9e0,검단우리교회,김남영,개인,137-82-70731,인천광역시 서구 완정로178번안길 1 (마전동,"22617 인천광역시 서구 완정로178번안길 1 (마전동, 검단우리교회)",032-563-5970,,,37.6032702,126.6577681
e6c311e0-e46b-420d-8b82-35b194a240bc,검암교회,이수규,개인,137-82-60719,인천광역시 서구 승학로506번길 22 (검암동,"22696 인천광역시 서구 승학로506번길 22 (검암동, 검암 감리교회)",--,,,37.56350219999999,126.6751297
ae73f324-06db-4d54-82c5-5cf9b1d4b609,게임팩토리 우면(김일중),김일중,개인,424-32-00089,서울특별시 서초구 바우뫼로 16 지하,06763 서울특별시 서초구 바우뫼로 16 지하 1층 (우면동),010-7795-9945,서비스,인터넷PC방,37.4696512,127.0249798
41ecc9fb-3a0f-41a6-b244-e9213a32d39c,겨자씨교회,김현일,개인,612-82-91557,경상남도 양산시 평산로 70,"50542 경상남도 양산시 평산로 70 2층, 3층 (평산동)",--,,,35.3821852,129.1474465
bf051845-151a-48a8-9947-67e855596509,겸필름,김록경,개인,448-18-00793,경상남도 진주시 진양호로527번길 4-1,52684 경상남도 진주시 진양호로527번길 4-1 3층 (대안동),010-7388-2156,정보통신업,일반 영화 및 비디오물 제작업,35.1932245,128.0832256
4146b373-51ef-4f07-b4ef-26432943ff40,경기도기독교연합회,고명진,개인,124-82-21592,경기도 수원시 권선구 동수원로146번길 46-13,16667 경기도 수원시 권선구 동수원로146번길 46-13 201호(곡반정동),010-3834-6923,,,37.24456869999999,127.0327687
ed13cc70-8974-4781-98f0-124ea106547c,경동나비엔 경기광주중앙점,김동일,개인,152-13-02255,경기도 광주시 담안길 15,12779 경기도 광주시 담안길 15 101호(장지동),010-6207-9267,도매 및 소매업,보일러,37.3861211,127.2401011
3971e517-bf3a-43c5-93d3-e46993f82299,경북신도청중앙교회,박광훈,개인,409-82-84799,경상북도시 풍천면 풍요3길 45,36759 경상북도 안동시 풍천면 풍요3길 45,--,,,36.576715,128.4967991
8ad20a7e-f3c5-4658-8ebc-dea52114e7cf,경서프라자702호(우기원),우기원,개인,830-67-00442,경기도 화성시 동탄순환대로 696,18466 경기도 화성시 동탄순환대로 696 7층 702호(영천동),--,부동산업,"비주거용 건물 임대업(점포, 자기땅)",37.2069684,127.1112704
a49c993d-9cb4-40ca-a62b-e36d7f9cb5d1,경희대 태권스쿨 태권도장,박인환,개인,113-93-40028,경기 김포시 태장로 823 405,"10091 경기 김포시 태장로 823 405,406,407,408호(장기동,자이에비뉴상가)",010-4020-6645,교육서비스업,태권도 및 무술 교육기관,37.6354312,126.6805645
5a82a547-e0d9-43d3-9cc6-fc0264bd3548,계남버거 구월점,강하나,개인,529-12-02763,인천광역시구 구월남로 216 (구월동,"21564 인천광역시 남동구 구월남로 216 (구월동, 가나프라자) 지하1층 B04호",010-8810-9943,숙박 및 음식점업,"피자, 햄버거, 샌드위치 및 유사 음식점업",37.4525257,126.7134379
1c7a8d1b-49a0-4a91-b202-ed8e55150463,고기원칙 탕정역점,배화민,개인,582-07-02324,충청남도 아산시 탕정면 한들물빛도시로 70 c동,"31465 충청남도 아산시 탕정면 한들물빛도시로 70 c동 101호, 102호 (한들물빛도시지웰시티센트럴푸르지오2단지)",010-2002-7693,숙박 및 음식점업,한식 일반 음식점업,36.7866435,127.0879414
524a1b9b-8676-4a49-bfb6-1d18fa79438c,고난받는이들과함께하는교회,진광수,개인,110-89-05364,서울특별시 서대문구 충정로11길 20,03735 서울특별시 서대문구 충정로11길 20 (충정로2가),--,,,37.5655787,126.965261
db85a47f-e606-407c-8c5b-4178559726c1,고등제일감리교회,문공희,개인,135-82-72747,경기도 수원시 팔달구 팔달로 54-1,16447 경기도 수원시 팔달구 팔달로 54-1 (고등동),--,,,37.2735826,127.0025001
0857d5de-661f-4182-8d21-afdcbae5a113,고모교회,노철옥,개인,143-82-61203,경기도 화성시 마도면 마도서길117번길 1,18544 경기도 화성시 마도면 마도서길117번길 1 (고모리감리교회),--,,,37.176771,126.7360359
5fa3c048-b3fa-435e-8e7f-39bc62ba57b0,고산중앙교회,김찬회,개인,402-82-78748,전북특별자치도 완주군 고산면 읍내3길 17-4,55311 전북특별자치도 완주군 고산면 읍내3길 17-4,--,,,35.9764457,127.2083385
7045c855-252f-4154-b3a5-e59786379f20,고산중앙교회,김현호,개인,402-82-78748,전북특별자치도 완주군 고산면 읍내1길 14-7,55311 전북특별자치도 완주군 고산면 읍내1길 14-7 (고산중앙교회),--,,,35.975918,127.2079971
63f48ec0-e8b7-4944-87fe-b7265e5d9962,고삼제일교회,김종민,개인,125-89-08460,경기도 안성시 고삼면길 22,17504 경기도 안성시 고삼면 사동길 22 (고삼제일교회),--,,,37.0923305,127.2715103
bb74728a-0ee5-47a7-9323-373c17ea42fb,고신총회세계선교회,남일우,개인,305-89-09648,대전광역시 대덕구 홍도로99번길 16 (중리동,"34429 대전광역시 대덕구 홍도로99번길 16 (중리동, 고신총회선교센터)",--,,,36.3554479,127.4264438
22009961-d9c2-42a1-928f-1ba3b8981927,고지성 /신한,고지성,개인,000-00-00000,제주특별자치도 서귀포시 남원읍 태흥중동로 24 .,63617 제주특별자치도 서귀포시 남원읍 태흥중동로 24 .,--,"협회 및 단체, 수리 및 기타 개인서비스",기타자영업,33.2851286,126.7345072
4db67f10-5a8c-4063-87b8-66cb270f2aaf,고철수,고철수,개인,000-00-00001,경기도 성남시 수정구 복정로72번길 10 B03호,13118 경기도 성남시 수정구 복정로72번길 10 B03호(복정동),010-7727-2389,,,37.4587518,127.1270956
a827c98e-3043-4a76-9a30-e4f3e1fc9cad,곡성동부교회,최하종,개인,408-82-13516,전라남도 곡성군 곡성읍 곡고로 245,57525 전라남도 곡성군 곡성읍 곡고로 245,--,,,35.2932919,127.3222653
825fcc5d-8a58-4d13-a6c6-01b19ca2d9ea,곤지암농약사,박승기,개인,126-03-86771,경기도 광주시 곤지암읍 곤지암로 39,12804 경기도 광주시 곤지암읍 곤지암로 39 1층,031-769-2243,소매,종자 농약 비료 농자재,37.3494816,127.3422117
f50b1f45-cc6d-4927-ad2d-42ec9f754a73,골드캐슬,송상분,개인,112-01-51871,서울특별시 관악구 남부순환로220길 32,08787 서울특별시 관악구 남부순환로220길 32 (봉천동),02-889-5578,부동산업,주거용 건물 임대업,37.47990830000001,126.9514532
0c2e5c73-235f-4c77-ba54-f0611ab987f1,골드캐슬 빌딩,송상분,개인,240-21-02071,서울특별시 관악구 남부순환로220길 32.3층,08787 서울특별시 관악구 남부순환로220길 32 (봉천동) 2층.3층,--,부동산업,"비주거용 건물 임대업(점포, 자기땅)",37.4797632,126.9516016
fee76c05-c65b-499f-aa8e-5f2b5cba5e7d,골마스터 피팅,서민식,개인,732-53-00613,서울특별시 강남구 선릉로 639(논현동,"06100 서울특별시 강남구 선릉로 639 1층(논현동, 태원빌딩)",010-3701-4828,도매 및 소매업,운동 및 경기용품 소매업,37.5136787,127.0317124
e3e141aa-1288-46aa-9ed6-660df4082f55,곰북스서점,홍연숙,개인,541-90-01554,서울특별시 동작구 양녕로 186,07037 서울특별시 동작구 양녕로 186 지하1층 (상도동),010-5014-3320,소매,서적,37.4978824,126.9436038
77410780-8163-42a1-8327-178c451652dc,곰티태양광발전소,임승빈,개인,303-22-20310,전북특별자치도 완주군 상관면 의암리 427,55358 전북특별자치도 완주군 상관면 의암리 427,010-8653-7592,"전기, 가스, 증기 및 공기 조절 공급업",태양력 발전업,35.7930762,127.2374221
5bcef5d9-7454-4578-ae6b-f5214ef48b4c,곱창가,장명학,개인,315-12-63268,경기도 수원시 팔달구 매산로 17-6,16455 경기도 수원시 팔달구 매산로 17-6 1동 1층(매산로1가),010-6818-0814,음식점업,한식,37.2677497,127.0034996
41ae63c1-23da-4f87-a2d5-7fefd1c9d9e4,공도교회,오명동,개인,125-89-01491,경기도 안성시 공도읍 승두길 60-1,17562 경기도 안성시 공도읍 승두길 60-1 (공도교회),--,,,36.999831,127.1732923
c2cecd9a-3d03-4146-8795-fdbb463e841a,공도교회,이대희,개인,205-82-64982,경기도 안성시 공도읍 승두3길 30,17562 경기도 안성시 공도읍 승두3길 30 (공도장로교회),--,,,36.995984,127.1683373
0e44941a-0f42-4420-877f-263ef188a7d6,공도제일감리교회,권성은,개인,125-89-05992,경기도 안성시 공도읍 용머리길 9-14,17551 경기도 안성시 공도읍 용머리길 9-14 (공도제일감리교회),--,,,37.0007387,127.1627503
f201bc95-53e2-46cd-9354-29e5330de7ee,공릉교회,박우석,개인,206-82-77710,서울특별시 노원구 섬밭로 54 (공릉동,"01856 서울특별시 노원구 섬밭로 54 (공릉동, 동덕빌딩)",--,,,37.6217767,127.071879
a78a66b0-def9-4ec9-ba43-a62ba233e8fe,공진냉동ENG,유윤종,개인,129-30-44887,경기도 성남시 중원구 광명로256번길 45-13,13251 경기도 성남시 중원구 광명로256번길 45-13 1층 (중앙동),010-8990-2516,서비스,"에어컨,냉난방설치",37.4408375,127.1574868
17933922-b9ab-4efe-bd64-4e784d6955e5,과천영광교회,우진성,개인,138-82-70296,경기도 과천시 별양로 66-10,13834 경기도 과천시 별양로 66-10 (별양동),--,,,37.4243015,126.9942258
5c98bf4b-412b-4216-a5ef-dc38ceb3caf6,광남인테리어,김은식,개인,369-49-00951,경기도 광주시 광남안로 58,12783 경기도 광주시 광남안로 58 2층 (태전동),010-5327-0648,서비스업,목수,37.390113,127.2190189
450fd088-137c-4264-ab62-8b3601cd7289,광명교회,윤정상,개인,403-82-65417,전북특별자치도 익산시 여산면 북성길 57,54520 전북특별자치도 익산시 여산면 북성길 57 (광명교회),--,,,36.0626061,127.0681946
691d1262-f21b-471f-bb12-7a7c2d2e8391,광명교회,신대호,개인,105-82-79244,인천광역시 서구 가석로 268-1 (석남동,"22802 인천광역시 서구 가석로 268-1 (석남동, 광명교회)",--,,,37.5085704,126.676759
9f88a560-ca52-42f7-9281-f7bbbfd14f05,광민교회,박승호,개인,215-89-03507,서울특별시 송파구 오금로27길 4,05645 서울특별시 송파구 오금로27길 4 (방이동),--,,,37.5067721,127.1204501
6b6b937b-d3f3-426c-b7e2-1f44736c0d3b,광산교회,정철오,개인,410-82-61457,광주광역시 광산구 첨단중앙로124번길 5-14,62276 광주광역시 광산구 첨단중앙로124번길 5-14 (월계동),--,,,35.2168346,126.8435822
84e46983-5b3d-4e47-910c-27b900697f44,광성교회,정성영,개인,135-82-69335,경기도 용인시 기흥구 관곡로77번길 3-12 (구갈동,"16963 경기도 용인시 기흥구 관곡로77번길 3-12 (구갈동, 구갈중앙프라자)",--,,,37.2821957,127.1146997
86f06e83-2c11-429f-8632-71551e57c68b,광성교회,양문승,개인,402-82-82960,전북특별자치도 전주시 완산구 솟대2길 19,55091 전북특별자치도 전주시 완산구 솟대2길 19 (삼천동1가),--,,,35.7948337,127.1240074
e219ce71-83ab-4a49-a82f-9608ab11e8a2,광암,이장범,개인,239-50-00694,경기도 용인시 수지구 고기로377번길 17,16801 경기도 용인시 수지구 고기로377번길 17 (고기동),010-5377-1701,부동산업,"비주거용 건물 임대업(점포, 자기땅)",37.3577749,127.0661354
f843c51a-e0fa-4c59-86ef-df019a9196c9,광암교회,박주일,개인,110-82-63744,서울특별시 은평구 가좌로7라길 43 (응암동,"03483 서울특별시 은평구 가좌로7라길 43 (응암동, 광암교회)",--,,,37.5834895,126.9174426
06843b82-68e0-4f5a-b609-f15e79d681cf,광야의교회,임창진,개인,215-82-72174,경기도 하남시 위례학암로14번길 11 701,"13010 경기도 하남시 위례학암로14번길 11 7층 701, 702, 703호 (학암동)",--,,,37.4874355,127.1571754
4cfa8f31-1958-47ed-a82f-4c284f0d3761,광주반석교회,이혁창,개인,409-82-61419,광주광역시 북구 대천로157번길 33 (문흥동,"61125 광주광역시 북구 대천로157번길 33 (문흥동, 광주반석교회)",--,,,35.1893075,126.9206651
6cf0e7bb-640d-45cd-8528-cf232ee4f801,광진빌딩,박경필외 4,개인,129-26-11109,서울특별시 강남구 언주로113길 8,06108 서울특별시 강남구 언주로113길 8 (논현동),02-593-5958,부동산,임대,37.5095778,127.0366523
151a8c2d-71b3-47e9-b72a-82d73b3d1636,광진빌딩(이왕돈),이왕돈,개인,129-26-11109,서울특별시 서초구 서초중앙로 200 (서초동,"서울특별시 서초구 서초중앙로 200 16동 108호 (서초동, 삼풍아파트)",010-3711-5957,부동산업,점포(자기땅),37.4985436,127.0156133
f5bb8c51-cfe2-49d5-82ad-34717c744151,구로하사랑교회,고재구,개인,113-89-03157,서울특별시 구로구 고척로3길 5-10,08254 서울특별시 구로구 고척로3길 5-10 (오류동),--,,,37.4958337,126.8398912
b54eb8aa-b7d2-47f3-924e-c9c1045f2f26,구룡1태양광발전소(유운성),유운성,개인,675-68-00594,전북특별자치도 진안군 상전면 구룡리 38,567812 전북특별자치도 진안군 상전면 구룡리 38,010-2297-9812,"전기, 가스, 증기 및 공기 조절 공급업",태양력 발전업,35.8870372,127.5237618
52d2afda-2e3e-4253-a874-49bf7b3bba4e,구룡3태양광발전소(박병주),박병주,개인,603-37-61383,전라북도 진안군 상전면 구룡리 38-2,"567812 전라북도 진안군 상전면 구룡리 38-2, 39",010-8643-4623,"전기, 가스, 증기 및 공기 조절 공급업",태양력 발전업,35.8868163,127.5236333
10a7d169-512c-434a-8c2a-81833ff7ed92,구미교회,김대동,개인,129-82-62701,경기도 성남시 분당구 성남대로144번길 23,13627 경기도 성남시 분당구 성남대로144번길 23 (구미동),--,,,37.348932,127.1117499
83a3bba8-168c-49d6-94b6-297211a04ad1,구성남포교회,박동준,개인,135-80-03945,경기도 용인시 기흥구 연원로 51 (보정동,"16908 경기도 용인시 기흥구 연원로 51 (보정동, 연원마을성원상떼빌아파트)",--,,,37.3038221,127.1099052
389a6dca-28d9-491d-93d8-027a4259cc69,구월de 부다페스타,노은채,개인,120-12-63826,인천구대로765번길 39 (구월동,"21556 인천 남동구 남동대로765번길 39 6층 601호 (구월동,대진빌딩)",010-2644-8081,부동산업,비주거용 건물 임대업(공유오피스 전대),37.4506495,126.7053889
cda1f34a-8ca5-4e4b-aa0f-1509dd10652c,구정옥,구정옥,개인,000-00-00000,경기도 광주시 곤지암읍 평촌길 171703호,12800 경기도 광주시 곤지암읍 평촌길 17 104동1703호 (현진에버빌아파트),--,,,37.3562789,127.3227489
96670555-da38-4510-acb1-5b29a970455f,구치감리교회,황선필,개인,206-82-79964,충청남도 보령시 오천면 원산도3길 31-12,33411 충청남도 보령시 오천면 원산도3길 31-12,--,,,36.369224,126.4208894
86d9cb6b-d3b4-416e-803a-242fd67036ed,국가대표 컴퍼니,장바울,개인,545-31-01831,대전광역시 서구 대덕대로 150(갈마동,"35265 대전광역시 서구 대덕대로 150 112동 908호(갈마동, 큰마을아파트)",010-4414-3972,서비스업,"음향이벤트,음향설비,행사기획,이벤트행사",36.3446889,127.3768706
e7cc3e9e-1fba-42a3-b68c-b40744aab665,국가대표 탑태권도장,안재상,개인,169-98-01644,경기 고양시 덕양구 대덕산2길 23,10543 경기 고양시 덕양구 대덕산2길 23 1층,010-9227-1354,교육서비스업,태권도 및 무술 교육기관,37.5866692,126.8638135
67d6d62a-3c11-4e39-9346-10d7f403fd57,국가대표 태권도스쿨 태권도장,김향,개인,150-93-02213,서울 성북구 한천로99길 45,02760 서울 성북구 한천로99길 45 2층 202호,010-5650-6921,교육서비스업,태권도 및 무술 교육기관,37.6204299,127.0498719
d56dee0e-0487-4b56-a041-c35e34c80ff5,국가대표복싱센터,구교성,개인,719-94-01873,대전광역시 서구 둔산남로105번길 34,35241 대전광역시 서구 둔산남로105번길 34 4층 (둔산동),010-6651-9593,교육서비스업,태권도 및 무술 교육기관,36.3506038,127.3894879
99566f91-92b6-46ba-80a9-00a4df4695da,국도유리,김창규,개인,405-24-00064,서울특별시 송파구 석촌호수로12길 1-11 (잠실동,"138862 서울특별시 송파구 석촌호수로12길 1-11 (잠실동, 상호빌딩)",010-5390-0688,도매 및 소매업,"유리샤시, 기타건축자재",37.5088269,127.0863867
886d29c7-d368-4647-9d65-7933f0b4366c,국수회관,장은영,개인,343-25-01855,경상북도 구미시 신시로 80,39287 경상북도 구미시 신시로 80 1층(송정동),010-8794-7778,숙박 및 음식점업,한식 일반 음식점업,36.1150297,128.3396356
6a7fb263-3ab1-460f-9b4b-1ac5c9575dc4,국은희 / 아주,국은희,개인,000-00-00000,인천광역시구 구월로372번길 14-11 (만수동,"21539 인천광역시 남동구 구월로372번길 14-11 102호 (만수동, 정도빌라)",010-7338-9751,부동산업,주거용 건물 임대업,37.4541621,126.7313009
9c7723ad-e99d-4758-9464-c4cbe0aa47cf,국제아프리카내지선교회,이진우,개인,117-82-64161,경기도 성남시 분당구 성남대로916번길 20 (야탑동,"13506 경기도 성남시 분당구 성남대로916번길 20 501호 (야탑동, 노블리치1오피스텔)",--,,,37.4101532,127.1297694
867f00a1-1baf-480c-9c91-fa69eea6641e,군산아구찜,박예자,개인,129-33-86985,경기 성남시 분당구 야탑로111번길 5-1 (야탑동,"13505 경기 성남시 분당구 야탑로111번길 5-1 (야탑동, 1층)",010-6211-5337,음식,한식,37.4100188,127.1309617
f3d8acf3-b5eb-4ff1-8d90-f6b825b6b75b,군산중앙교회,박정동,개인,401-82-05505,전북특별자치도 군산시 번영로 330 (사정동,"54070 전북특별자치도 군산시 번영로 330 (사정동, 중앙교회)",--,,,35.9596405,126.7428882
33123e73-f763-43c5-bfad-294be22cd3c0,군산지평선교회,장훈,개인,401-82-60056,전북특별자치도 군산시 나운동 837-5,573350 전북특별자치도 군산시 나운동 837-5,--,,,35.9653639,126.6950831
3ec1169d-1f78-4035-a466-97a402e869ac,군위성결교회,허병국,개인,508-82-05072,대구광역시 군위군 군위읍 동서4길 6,39019 대구광역시 군위군 군위읍 동서4길 6 (군위성결교회),--,,,36.2355108,128.5683566
da4d5b44-aacf-4bfe-979f-d893cc3ef5b2,굿케어군자요양보호사교육원,김수영,개인,345-97-01372,서울특별시 광진구 군자로 75(군자동,"05002 서울특별시 광진구 군자로 75 2층(군자동, 지장빌딩)",010-7511-1401,교육서비스업,요양보호사 교육,37.5499493,127.0706356
9148169f-ee2e-4853-8e7c-956b59008ece,굿케어요양보호사교육원,김수영,개인,283-95-01352,서울특별시 광진구 아차산로 633,04964 서울특별시 광진구 아차산로 633 3층(광장동),010-7511-1401,교육서비스업,요양보호사 교육,37.5491971,127.1075862
0f20cfab-a538-42e1-8fc6-768647ccb2a6,권나경임대,권나경,개인,350-01-02064,서울특별시 서초구 서초대로78길 42 (서초동,"06626 서울특별시 서초구 서초대로78길 42 13층 1312호 (서초동, 현대기림오피스텔)",010-2236-2903,부동산업,비주거용 건물 임대업,37.4940025,127.028354
d9c1a61f-e114-4ac5-a570-3d6615c9b4d8,권민정,권민정,개인,000-00-00000,경기도 안산시 상록구 한양대학로 55,15588 경기도 안산시 상록구 한양대학로 55 (사동),--,"협회 및 단체, 수리 및 기타 개인서비스",기타자영업,37.2960668,126.8347845
b948128a-3a3c-49e2-a9f5-fc13ca9b3098,권순하,권순하,개인,742-13-01030,서울특별시 강서구 마곡중앙로 59-21,"07807 서울특별시 강서구 마곡중앙로 59-21 2층,222호(마곡동, 에이스타워Ⅱ)",--,부동산업,"비주거용 건물 임대업(점포, 자기땅)",37.5587769,126.8242448
8d0b5050-d3a6-49fe-ade4-41410967ce70,권영민,권영민,개인,129-92-94522,경기도 성남시 중원구 둔촌대로113번길 3 401,13373 경기도 성남시 중원구 둔촌대로113번길 3 401 (성남동),--,"협회 및 단체, 수리 및 기타 개인서비스","배우,탤런트등",37.4296733,127.1314332
edc7a927-d892-490f-a595-622bc6e73cd3,권현숙 / 기업,권현숙,개인,000-00-00000,경기도 의왕시 백운중앙로 99(학의동,"16016 경기도 의왕시 백운중앙로 99 304동 701호(학의동, 의왕백운해링턴플레이스3단지)",031-783-8897,"협회 및 단체, 수리 및 기타 개인서비스","기타모집수당,채권회수수당",37.3720405,127.0090386
643fdc32-712e-4f6b-be6d-bf79a331ecf9,권형완,권형완,개인,129-22-52311,경기 성남시 분당구 금곡동 166-1,463480 경기 성남시 분당구 금곡동 166-1,010-4221-9897,부동산,임대,37.350384,127.1073771
743801fc-ea2e-48ce-ae97-bc9b1e487c22,귀뚜라미보일러,김진기,개인,224-03-49522,강원특별자치도 횡성군 둔내면 둔내로 9-4,25265 강원특별자치도 횡성군 둔내면 둔내로 9-4,--,건 설 업,배관 및 냉ㆍ난방 공사업,37.5120523,128.2123412
efc0bd45-71bf-448c-8eba-316f09afd5a2,귀래교회,송재형,개인,224-82-61098,강원특별자치도 원주시 귀래면 북원로 85,26503 강원특별자치도 원주시 귀래면 북원로 85 (귀래교회),--,,,37.1682652,127.8845641
814331ad-deef-4867-ac17-15a21f542d8e,그교회,최성열,개인,215-82-67481,서울특별시 송파구 석촌호수로 133 (잠실동,"05607 서울특별시 송파구 석촌호수로 133 (잠실동, 레이크팰리스)",--,,,37.5076736,127.0917804
eeedf67e-fa00-412a-a299-5ab44b2c0ef2,그랑302,최혜숙,개인,513-23-01479,경기 성남시 중원구 금빛로 43,13188 경기 성남시 중원구 금빛로 43 1동 302호(금광동),010-8258-2092,부동산업,"비주거용 건물 임대업(점포, 자기땅)",37.4472279,127.1674118
d0639712-dd19-4bc8-b3a1-978cb2d53f27,그랑주떼발레아카데미학원,조수빈,개인,213-99-01711,경기 군포시 대야2로55번길 8,15886 경기 군포시 대야2로55번길 8 3층,010-6754-2741,교육서비스업,기타 예술학원,37.3322969,126.9161495
d70fa9f0-b356-44e8-b0d6-341b63bb00e3,그랑필무용학원,성한철,개인,538-90-00369,경기도 군포시 대야2로55번길 8 (대야미동,"15886 경기도 군포시 대야2로55번길 8 (대야미동, 영인빌딩)",010-2806-9968,교육서비스업,무용학원,37.3322969,126.9161495
7d231a67-c231-4bd0-ae03-9cb57f75c7aa,그레이스교회,문승진,개인,506-82-81865,서울특별시 종로구 창경궁로 287,03076 서울특별시 종로구 창경궁로 287 (혜화동),--,,,37.5866854,127.0018906
d1d0d51e-2760-4350-b5b9-c2d3921f6a4d,그레이엠(봇들마을),김종철,개인,129-35-38702,경기 성남시 분당구 삼평동 7428-102,463400 경기 성남시 분당구 삼평동 742 봇들마을휴먼시아8 단지상가 나-102,--,부동산업,임대,37.4020622,127.1085595
2c38da46-0625-4c7e-aa1f-d85bdc098647,그레이엠(서건타워)-x,김종철,개인,129-35-76308,경기도 성남시 분당구 판교역로 178 301.302.402(삼평동,"13524 경기도 성남시 분당구 판교역로 178 301.302.402(삼평동, 서건타워)",--,부동산업,임대,37.3965076,127.1100497
a50e91f7-fb1f-42cf-81a3-b6a808dbb2cd,그레이엠(월드마크),김종철,개인,129-37-26307,경기 성남시 분당구 삼평동 741,463400 경기 성남시 분당구 삼평동 741 대우푸르지오월드마크 1-35호,010-8888-6654,부동산업,임대,37.3955218,127.113649
e94e7553-6e70-4619-b53b-9d54f518e922,그루,조현자,개인,216-15-30160,경기도 안산시 단원구 광덕2로 156(고잔동,"15476 경기도 안산시 단원구 광덕2로 156 2층 201호(고잔동, 리젠시타워)",010-4623-2991,도매 및 소매업,가구 및 실내장식,37.3096942,126.8278646
760d5422-b1db-444d-968e-6fedc3521e43,그린도장,권진성,개인,127-14-80005,경기도 광주시 초월읍 산수로66번길 24,464961 경기도 광주시 초월읍 산수로66번길 24,010-4509-2632,제조업,목재쇼파도장,37.3685452,127.3203098
b822d55d-64aa-4ec5-8e47-349922c8a827,그린마트,김판현,개인,215-08-58793,서울 송파 잠실 245,138220 서울 송파 잠실 245,02-415-6010,도소매,슈퍼마켓,37.5067945,127.0830482
011e3a52-fc5a-4e03-a4fe-3e05ac6a8b0d,그린스페이스(GREEN SPACE),최상혁,개인,466-11-00375,서울특별시 송파구 송파대로 201 A611호(문정동,"05854 서울특별시 송파구 송파대로 201 6층 A611호(문정동,송파테라타워2 현대엔지니어링 지식산업센터)",02-2093-3485,부동산업,점포(자기땅),37.4855846,127.1225635
23902e92-1b9b-40f0-9739-69ab755556c3,그림,박용규,개인,327-45-00401,경기도 성남시 수정구 위례광장로 311409호(창곡동,"13641 경기도 성남시 수정구 위례광장로 311 3509동409호(창곡동, 위례35단지)",010-3009-1307,서비스업,디자인업,37.4695648,127.1414574
a9f1687c-50ae-43b3-a248-55e60789b6ab,그림그림스튜디오 미술교습소,김화희,개인,223-91-04077,제주특별자치도 제주시 조천읍 함덕30길 27,63333 제주특별자치도 제주시 조천읍 함덕30길 27 상가동 201호(광명샤인빌),--,교육서비스업,일반 교과학원,33.5380146,126.6776737
9aa492cd-ab39-4116-9690-9c83d8825613,그십자가교회,손연국,개인,223-82-67482,경기도 광주시 오포읍 양촌길 124-8,12798 경기도 광주시 오포읍 양촌길 124-8,--,,,37.37021110000001,127.2476145
7f1cd212-ccb2-4ed2-93aa-1151cc11cfe8,그의나라교회,주현덕,개인,214-82-63503,서울특별시구 양재대로89길 31,05405 서울특별시 강동구 양재대로89길 31 (성내동),--,,,37.5266841,127.1337647
db739847-a596-40c1-b9dc-505ad5a6139a,글로비스TP - 심병석,심병석,개인,137-08-90187,서울특별시 강남구 테헤란로 301 (역삼동,"06152 서울특별시 강남구 테헤란로 301 (역삼동, 삼정빌딩)",010-5316-3176,운수,특수화물,37.5031443,127.0431351
6409c264-4143-473a-89a8-38d0812d98a5,금강빌딩,이윤화외3명,개인,219-03-60715,서울특별시 송파구 가락로 71,05690 서울특별시 송파구 가락로 71 (석촌동),02-424-8281,부동산업,"비주거용 건물 임대업(점포, 자기땅)",37.5003908,127.1040635
23cdaf09-e915-4043-bded-2cd269f83deb,금강빌딩(17년1월~9월),이윤화외4명,개인,219-03-60715,서울시 송파구 석촌 256 5,138846 서울시 송파구 석촌 256 5,02-424-8281,부동산업,점포(자기땅),37.5002442,127.1041362
b6bf7937-a0f5-4c31-ab0a-5f24e1ad661b,금강빌딩(분양수입),이윤화외3명,개인,219-03-60715,서울특별시 송파구 석촌동 256-5,138846 서울특별시 송파구 석촌동 256-5,02-424-8281,건 설 업,기타 공동 주택 건설업,37.5002442,127.1041362
21e36bdc-41fc-43a3-b9c1-9b06c4d41432,금곡교회,최금석,개인,503-82-77324,경기도 수원시 권선구 서수원로591번길 15 (금곡동,"16392 경기도 수원시 권선구 서수원로591번길 15 (금곡동, 금곡교회)",--,,,37.2777994,126.95454
a7f52883-2313-4a97-999c-78e2beadcd26,금구교회,김영호,개인,509-82-01569,대구광역시 군위군 군위읍 쇳골길 53,39022 대구광역시 군위군 군위읍 쇳골길 53,--,,,36.2171084,128.5690598
2cac243d-d47f-4982-b455-464389ce175e,금메달교회,최태진,개인,134-82-75343,경기도 안산시 상록구 용신로 264-1,15581 경기도 안산시 상록구 용신로 264-1 (사동),--,,,37.3030207,126.8517749
678ed297-a065-49b0-abdf-76da924e9406,금천복싱체육관,김중연,개인,144-97-00426,서울 금천구 금하로 726,08644 서울 금천구 금하로 726 (시흥동) 4층,010-3617-7756,교육서비스업,체육도장(복싱),37.4503987,126.9102691
c7bde69c-0fd4-4121-8aea-52e7a1497a74,금토유통,최장순,개인,411-21-97374,경기도 성남시 수정구 금토로107번길 83 (금토동,"13452 경기도 성남시 수정구 금토로107번길 83 (금토동, 금토동주택)",--,도매및소매업,유통,37.4022098,127.07395
8c5e2641-4404-4699-9f40-73ffa266a846,기독교대한감리회 브니엘교회,유병용,개인,215-89-00209,서울특별시 송파구 양산로 1 (거여동,"05771 서울특별시 송파구 양산로 1 (거여동, 브니엘교회)",010-9272-2353,,,37.4893978,127.1425383
1f3463a5-b6e4-4a23-8945-d39b339108af,기독교대한감리회 서울연합교회(본점),PARK SEONG HWAL,법인,120-82-60797,서울특별시 강남구 도곡로 412 (대치동,"06278 서울특별시 강남구 도곡로 412 (대치동, 기독교대한감리교)",02-562-4123,부동산,임대,37.4968297,127.0557041
0bed119e-780b-4867-becf-5e8dc9d69e92,기독교대한감리회 서울연합교회(지점),PARK SEONG HWAL,법인,120-82-65360,서울특별시 강남구 도곡로 408 908(대치동,"06278 서울특별시 강남구 도곡로 408 908(대치동, 디마크 빌딩)호",02-562-4123,부동산업,"비주거용 건물 임대업(점포, 자기땅)",37.4966877,127.0552639
bbdbf7a7-afb3-43aa-a5ba-57cc817e9030,기독교대한감리회 양감교회,이홍극,법인,124-82-71016,경기도 화성시 양감면 은행나무로 251,18634 경기도 화성시 양감면 은행나무로 251 (양감교회),010-2585-1008,"전기, 가스, 증기 및 공기 조절 공급업",태양력 발전업,37.0809868,126.9441587
a2a7008d-b88a-414a-af23-ce3394a4cb70,기독교대한감리회 행복한교회,심원석,법인,134-82-02248,경기 안산시 상록구 월피로1길 16,15274 경기 안산시 상록구 월피로1길 16,010-4784-2755,음식점업,"커피 전문점,제과점업",37.3354387,126.8540549
0360d3f2-997b-42c0-9fb9-31a769a6d084,기독교대한성결교회제주제일교회,김홍양,법인,616-82-64334,제주특별자치도 제주시 아란6길 22,63237 제주특별자치도 제주시 아란6길 22,061-726-1981,,,33.4754767,126.5426658
8f607165-9cb0-4526-929b-1495246c76c3,기린PC방-장선호,장선호,개인,195-36-00200,서울특별시 금천구 독산로64길 15 (독산동,"08559 서울특별시 금천구 독산로64길 15 4층 (독산동, 나무빌딩)",010-8862-1974,서비스(예술/스포츠 및 여가관련)업,인터넷PC방,37.4652633,126.9034889
58c17aa9-293f-4f4b-94e6-950742dea760,기쁨의교회,이길영,개인,210-82-90901,경기도 화성시 융건로 91 (기안동,"18341 경기도 화성시 융건로 91 208호 (기안동, 기안마을 풍성신미주아파트)",--,,,37.2195319,126.9885306
48734262-dfef-482b-8f62-eb1f012dc822,기쁨이있는교회,송명진,개인,212-89-05239,서울특별시 송파구 새말로8길 17-1,05810 서울특별시 송파구 새말로8길 17-1 (문정동),--,,,37.4811492,127.1268513
be8f8ec4-06d1-4e6f-bb76-b730f00b8def,기성호(면세),기성호외 1명,개인,228-92-01280,경기도 성남시 수정구 고등공원로 19(고등동,"13105 경기도 성남시 수정구 고등공원로 19 101동 1506호(고등동, 판교밸리제일풍경채)",010-3202-5606,부동산업,주거용건물입대업(일반주택임대),37.4272055,127.0993487
6ce0aaca-7b6a-4162-b279-e4d8f680d8e9,기성호(일반),기성호외 1명,개인,228-05-69524,경기도 성남시 수정구 고등동 33-3,461300 경기도 성남시 수정구 고등동 33-3,010-3202-5606,부동산업,주거용 건물 임대업,37.4301857,127.0881739
35c32b78-c224-4e3d-90b0-f2a0d6c20d91,기성호안전발전소,기성호,개인,602-40-17429,경기도 성남시 수정구 청계산로5길 18,13106 경기도 성남시 수정구 청계산로5길 18 1층 2호(고등동),--,"전문, 과학 및 기술 서비스업",기타 전문 서비스업,37.4247097,127.1009133
70449fa2-d2d8-4c17-9b38-27770d203f1c,기연 주식회사,김연홍,법인,805-88-01853,경기도 용인시 기흥구 동백중앙로 191(중동,"17006 경기도 용인시 기흥구 동백중앙로 191 가811호(중동, 씨티프라자)",010-4618-1576,부동산업,"비주거용 건물 임대업(점포, 자기땅)",37.2708635,127.1528972
914a93bb-531b-4fc0-8ba4-eeeb9de19335,기연 주식회사(지점),김연홍,법인,634-85-01376,서울특별시 동대문구 이문로 195,02400 서울특별시 동대문구 이문로 195 (이문동),--,부동산업,"비주거용 건물 임대업(점포, 자기땅)",37.6039305,127.0618349
fa59876b-3ea5-4651-9d45-a29a3944da37,기은주,기은주,개인,000-00-00000,충청남도 서천군 서천읍 충절로29번길 16,33642 충청남도 서천군 서천읍 충절로29번길 16 706호 (제일아파트),010-2862-4918,"협회 및 단체, 수리 및 기타 개인서비스",기타자영업,36.0771256,126.6870175
9adb7a09-4526-4bc8-affe-0f6c7aa96d95,기천교회,김영민,개인,206-82-80592,경기도 화성시 팔탄면 건달산로 219-3,18526 경기도 화성시 팔탄면 건달산로 219-3,--,,,37.1915701,126.9093683
fb150999-1674-415d-ad47-71deaf29fc9c,긱스타 PC Cafe,신지용,개인,791-36-00949,경기도 고양시 덕양구 고양대로1384번길 9(성사동,"10468 경기도 고양시 덕양구 고양대로1384번길 9 지하1층 (성사동, 신원당프라자)",010-7298-3440,"예술, 스포츠 및 여가관련 서비스업",컴퓨터 게임방 운영업,37.6535353,126.8377383
5dc83e2a-7d65-4268-b510-18e17e5fbdcd,긱스타(geekstar pc cafe)-이병로,이병로,개인,735-48-00113,서울특별시 영등포구 당산로 132,07257 서울특별시 영등포구 당산로 132 지층 101호(당산동3가),031-783-8876,서비스(예술/스포츠 및 여가관련)업,인터넷PC방,37.5262237,126.8970393
5122bae1-fbf8-48af-a303-2643c01be921,긱스타PC(하남점),정석현,개인,603-15-08071,경기도 하남시 대청로 33 제(신장동,"12947 경기도 하남시 대청로 33 제지하층 제110호(신장동, 현대베스코아빌딩)",010-3127-6342,서비스업,컴퓨터게임방,37.5411046,127.2159906
bf6f2c88-7653-41a5-bf16-510242f3f33b,긱스타PC방(geekstarpc),엄태혁,개인,254-77-00142,경기도 고양시 일산서구 대화로156번길 16,10222 경기도 고양시 일산서구 대화로156번길 16 2층(대화동),010-8723-3068,서비스업,인터넷PC방,37.67105129999999,126.7368843
c0c74519-e5de-4626-9ad4-86386d305052,긱스타PC방-정수민,정수민,개인,320-70-00246,경기도 고양시 일산동구 무궁화로 31-2,"10364 경기도 고양시 일산동구 무궁화로 31-2 204호,205호(장항동, 풍성프라자)",010-2200-2191,"예술, 스포츠 및 여가관련 서비스업",PC방,37.6631015,126.7678796
6e37a7a7-ece8-4a7b-95e9-81591ec8c201,긱스타PC카페(GEEKSTAR PC CAFE)-손숙희,손숙희,개인,386-71-00165,서울특별시 강남구 남부순환로 2732,06296 서울특별시 강남구 남부순환로 2732 (도곡동),010-5477-4387,서비스,인터넷PC방,37.4857789,127.0448822
e0f670c2-5db4-49ce-8604-fdc8e8e0d125,긱스타PC카페(GEEKSTAR PC cafe)-수유,조남철,개인,411-18-13340,서울특별시 강북구 삼양로123길 1(수유동,"01030 서울특별시 강북구 삼양로123길 1 지하1층 (수유동, 삼원빌딩)",010-5477-4387,서비스(예술/스포츠 및 여가관련)업,인터넷PC방,37.6447411,127.0154407
f330d7ba-ed40-4fde-8c74-e8a86c867ee6,길갈교회,서명길,개인,210-82-62540,서울특별시 노원구 노원로34길 66,01679 서울특별시 노원구 노원로34길 66 (상계동),--,,,37.6618624,127.0660352
612a61f0-73c7-47db-ba7d-3ed79b3d265d,길르앗교회,유진기,개인,141-82-60528,경기도 파주시 문산읍 문향로139번길 11-13,10814 경기도 파주시 문산읍 문향로139번길 11-13,--,,,37.8633242,126.7878112
7607a9f9-d637-4301-b6bc-01316e7d4e8b,길벗교회,김민철,개인,110-89-05855,서울특별시 서대문구 증가로10길 50,03665 서울특별시 서대문구 증가로10길 50 (남가좌동),--,,,37.579167,126.9247884
0756cd14-1621-4328-b2e6-b889e6107f02,길을여는교회,최용대,개인,404-82-78249,전라남도 나주시 혁신로 135,58329 전라남도 나주시 혁신로 135 (빛가람동),--,,,35.0096526,126.8003431
c8b0992e-89ec-4f8f-88bf-bfee12c42f7a,김경동,김경동,개인,000-00-00000,경기도 오산시 오산로132번길 10,18143 경기도 오산시 오산로132번길 10,010-6422-6940,,,37.1373239,127.0706534
11add0c1-a4b2-48e6-983e-b06cc11ed884,김경숙 주택임대,김경숙,개인,114-90-35342,경기도 성남시 수정구 헌릉로 1005,"13644 경기도 성남시 수정구 헌릉로 1005 , 5801동 1101호(창곡동, 위례포레스트부영)",010-7474-6525,부동산업,주거용 건물 임대업,37.4619017,127.1456143
471ce85b-36a5-4eae-8ca9-b75c8d594e92,김경숙임대(수내),김경숙,개인,129-25-40946,경기도 성남시 분당구 백현로101번길 16 (수내동,"13595 경기도 성남시 분당구 백현로101번길 16 119호 (수내동, 대덕프라자)",--,부동산,임대,37.3770038,127.1127079
5fc82986-1c13-43fd-86f0-49d7051cf077,김경열,김경열,개인,418-93-02521,강원도 횡성군 서원면 경강로 661-9,25200 강원도 횡성군 서원면 경강로 661-9,010-3933-9377,건설업,주택신축판매,37.5256715,127.8680953
cdd7a72f-da1d-4902-a48f-c79fab2532bd,김경주,김경주,개인,126-21-59579,경기도 광주시 통미로64번길 20-7,464902 경기도 광주시 통미로64번길 20-7 302호 (송정동),010-4628-0942,운수업,용달차,37.4170593,127.2549736
716d20ab-0b69-4c7d-9ecd-55b092382f2b,김규한,김규한,개인,000-00-00000,서울특별시 강북구 솔샘로 174(미아동,"142779 서울특별시 강북구 솔샘로 174 144동 703호(미아동, SK아파트)",010-3782-9259,서비스(사회/수리및개인)업,학원강사/강사/과외교습자/재단사,37.6179756,127.0126309
8e97f0a8-fbd4-4ed5-907e-46e40c8fce60,김낙민,김낙민,개인,000-00-00000,경기도 성남시 분당구 판교로 430(이매동,"13523 경기도 성남시 분당구 판교로 430 207동 203호(이매동, 아름마을건영한성태영아파트)",--,"협회 및 단체, 수리 및 기타 개인서비스",기타자영업,37.3959818,127.1314337
5e30e6b0-8518-4222-ba60-9d7205ac239a,김대인,김대인,개인,000-00-00000,경기도 안산시 상록구 평안로1안길 20,15629 경기도 안산시 상록구 평안로1안길 20 (사동),010-7338-9751,서비스(사회/수리및개인)업,기타자유직업,37.2825717,126.8498667
80dd2db0-2b8a-4365-bce3-39ed00408562,김동국,김동국,개인,510-90-59294,강원도 원주시 천매봉길 82-6,26483 강원도 원주시 천매봉길 82-6 (단구동),010-6321-9390,건설업,주택신축판매,37.3240525,127.9417023
59480ab0-5ce7-4cc2-8e7e-66a3342298e8,김동진,김동진,개인,000-00-00000,경기 용인시 기흥구 동탄기흥로 684,17102 경기 용인시 기흥구 동탄기흥로 684 105동 602호,--,,,37.2208428,127.0975574
87ae8886-1180-4d24-8b3e-25a1efdc1b84,김두용,김두용,개인,000-00-00000,서울특별시 관악구 은천로 93(봉천동,"08715 서울특별시 관악구 은천로 93 101동 2501호(봉천동, 벽산블루밍아파트)",031-783-8897,서비스,기타모집수당,37.4892875,126.9447672
996a444e-9ad5-4499-827f-bea27d738c50,김려령 (작가),김려령,개인,000-00-00000,경기도 성남시 수정구 산성대로 341812호 (신흥동,"461709 경기도 성남시 수정구 산성대로 341 2동812호 (신흥동, 한신아파트)",010-8271-1150,서비스(사회/수리및개인)업,작가,37.44684910000001,127.146461
063094a0-27bf-4582-a72b-b16737fb62d8,김명기임대,김명기,개인,218-15-64609,경기도 광주시 초월읍 지월로100번길 29-7,12728 경기도 광주시 초월읍 지월로100번길 29-7,--,부동산업 및 임대업,"비주거용 건물 임대업(점포, 자기땅)",37.4115102,127.3006344
bbdf4968-ae24-4661-88c4-b2ca5a720d2d,김문석,김문석,개인,000-00-00000,경기 고양시 덕양구 오부자로 77,10583 경기 고양시 덕양구 오부자로 77 105동 2803호,--,,,37.6533023,126.9105715
08e78453-479c-42b8-b3cd-198bea1970b4,김문수외1명(방이),김문수,개인,230-01-37274,서울특별시 송파구 양재대로 1222(방이동,"05648 서울특별시 송파구 양재대로 1222 1층 6호(방이동, 올림픽프라자)",010-5957-6541,부동산업,"비주거용 건물 임대업(점포, 자기땅)",37.5158257,127.1322182
1f34316e-c438-4de0-a4d5-8ce899db4c41,김미경,김미경,개인,389-04-00804,서울특별시구 마장로 137 (상왕십리동,"04700 서울특별시 성동구 마장로 137 221동 1층 108호 (상왕십리동, 텐즈힐)",010-8506-3296,부동산업,"비주거용 건물 임대업(점포, 자기땅)",37.5693623,127.0247156
06bb8c0f-46c4-4e2e-b8a9-ff78407f783e,김미숙,김미숙,개인,000-00-00000,경기도 광주시 오포읍 신현로 12-329,12771 경기도 광주시 오포읍 신현로 12-329 36호(펠리체아일랜드),031-783-8897,"협회 및 단체, 수리 및 기타 개인서비스","기타모집수당,채권회수수당",37.3536761,127.1454414
67682285-3779-4a5d-a4de-ae0ab249dd3c,김미애 / 기업,김미애,개인,000-00-00000,서울특별시 구로구 개봉로3길 47-28(개봉동,"08353 서울특별시 구로구 개봉로3길 47-28 402호(개봉동, 대우샤인빌)",031-783-8897,"협회 및 단체, 수리 및 기타 개인서비스","기타모집수당,채권회수수당",37.4850219,126.8532756
d1c0b021-2d35-4a38-9147-f871cd51e0f3,김민자 /신한,김민자,개인,000-00-00000,제주특별자치도 제주시 월성로2길 9,63164 제주특별자치도 제주시 월성로2길 9 (용담이동),010-3691-7182,"협회 및 단체, 수리 및 기타 개인서비스",보험설계사,33.5032573,126.5036985
36d53261-81c2-4e00-a3b4-bb765e385bb0,김민재 / 찰리,김민재,개인,000-00-00000,서울특별시 도봉구 도봉로141길 13(쌍문동,"01391 서울특별시 도봉구 도봉로141길 13 401호(쌍문동, 동양그린빌)",010-2667-7043,"협회 및 단체, 수리 및 기타 개인서비스",기타자영업,37.6615311,127.0412932
fefb8945-8674-44b5-bfd9-530a726fcc9a,김민진 / 기업,김민진,개인,000-00-00000,경기도 안성시 공도읍 공도3로 10-6,17561 경기도 안성시 공도읍 공도3로 10-6 403호,031-783-8897,"협회 및 단체, 수리 및 기타 개인서비스","기타모집수당,채권회수수당",37.0006818,127.1711933
62ab5c72-b0c2-4d1e-8f2b-2e52636e3ccc,김민철,김민철,개인,000-00-00000,서울특별시구 둘레길 21 (성수동1가,"04774 서울특별시 성동구 둘레길 21 (성수동1가, 성수동동양아파트)",010-5368-1731,"협회 및 단체, 수리 및 기타 개인서비스",기타자영업,37.5376909,127.0463145
1ddcd3e0-087d-4de4-a07a-c9dad78c89fa,김밥천국,나정민,개인,578-10-00953,서울특별시 광진구 뚝섬로33길 45 (자양동,"05070 서울특별시 광진구 뚝섬로33길 45 1층 (자양동, 경현빌딩)",010-9089-1633,음식,분식,37.5370226,127.0700899
24d57f06-d890-4473-b068-63334a1c40f3,김삿갓,김봉기,개인,234-42-00734,전북특별자치도 부안군 위도면 위도로 41-1,56348 전북특별자치도 부안군 위도면 위도로 41-1 (민박밖시),010-6600-0897,음식점업,한식 일반 음식점업,35.6171642,126.3046596
5e0d3ca9-3d86-44fc-87a2-60dd0d1e48da,김상현 /신한,김상현,개인,000-00-00000,제주특별자치도 서귀포시 동문동로 32,63590 제주특별자치도 서귀포시 동문동로 32 (서귀동),010-3400-5577,"협회 및 단체, 수리 및 기타 개인서비스",기타자영업,33.2511267,126.5651335
e2b9374c-6723-4ffa-aec8-e020dfaad585,김석기임대,김석기,개인,107-46-21037,서울 영등포 당산 30 21기10,150723 서울 영등포 당산 30 2 유통상가1기10,--,부동산임대,비주거용사무실임대,37.5422703,126.8984233
27d219d0-f7c8-444e-9fd8-96994e08dc76,김선덕,김선덕,개인,187-53-00870,경기 성남시 분당구 수내로 54,13595 경기 성남시 분당구 수내로 54 2603호,010-2276-3218,"협회 및 단체, 수리 및 기타 개인서비스",작가,37.3800865,127.1177848
5752262c-ca3b-4c88-a7f5-8321ce05eaf6,김성수외1명(성내),김성수,개인,212-25-87995,서울특별시구 천호대로 1034(성내동,"05379 서울특별시 강동구 천호대로 1034 103호(성내동, 탑 메디칼센타)",010-3151-2317,140221,"비주거용 건물 임대업(점포, 자기땅)",37.5372561,127.1267111
aa1b53d2-615d-4e27-aa7e-9133245bb726,김성주 임대,김성주,개인,129-27-11028,경기도 이천시 부발읍 중부대로 1802,467864 경기도 이천시 부발읍 중부대로 1802 (외1필지),010-6207-9066,부동산업,"비주거용 건물 임대업(점포, 자기땅)",37.2902032,127.5064572
99cc5f9a-8962-413c-97bf-f843c54ecce6,김성주 주택임대,김성주,개인,473-95-00688,경기도 성남시 분당구 야탑로 124 (야탑동,"13517 경기도 성남시 분당구 야탑로 124 612동 1403호 (야탑동, 탑마을벽산아파트)",010-6207-9066,부동산업,주거용 건물 임대업(장기임대다가구주택),37.4087423,127.1322597
9f92d76b-7f4b-45d8-9776-9ee8b4ad0cd7,김안식법무사사무소,김안식,개인,214-08-19593,서울 서초구 서초동 1619-10,06640 서울 서초구 서초동 1619-10,010-5594-9533,서비스업,법무사,37.4872177,127.0176585
442f6d2a-95f7-4d54-a00c-4016ba4f21e2,김양헌 / 빈,김양헌,개인,000-00-00000,경기도 성남시 분당구 장안로 67 (분당동,"13583 경기도 성남시 분당구 장안로 67 (분당동, 장안타운두산건영빌라)",010-5640-0375,서비스(사회/수리및개인)업,행사도우미,37.3725195,127.145588
0222d2e0-5856-49bc-8a7b-8a69b5c280bc,김연주,김연주,개인,000-00-00000,경기도 고양시 일산동구 위시티4로 802103호(식사동,"10321 경기도 고양시 일산동구 위시티4로 80 110동2103호(식사동, 위시티일산자이1단지)",010-8505-5125,"협회 및 단체, 수리 및 기타 개인서비스",기타자영업,37.6823663,126.8118909
1aae6994-73d4-47af-8363-b17a835332dd,김영규,김영규,개인,216-99-14646,서울특별시 동대문구 회기로23다길 13,02453 서울특별시 동대문구 회기로23다길 13 (회기동),--,부동산업 및 임대업,주거용 건물 임대업(일반주택임대),37.5929004,127.0556497
a867a9a0-d461-408f-bcc3-e1f4054ede7b,김영남,김영남,개인,000-00-00000,강원특별자치도 강릉시 원대로62번길 31 (교동,"25501 강원특별자치도 강릉시 원대로62번길 31 (교동, 샘터교회)",--,,,37.75997,128.8853727
35b6ca4f-4e96-46f9-926c-d88b7f2a1a6b,김영두 임대,김영두,개인,851-37-00909,경기도 시흥시 삼미시장1길 19(신천동,"14948 경기도 시흥시 삼미시장1길 19 2층 1호(신천동, 늘푸른교회)",010-7110-0587,부동산업,"비주거용 건물 임대업(점포, 타인땅)",37.4405937,126.7839059
f81113db-339a-4966-a6fb-9987b639fc49,김영우,김영우,개인,000-00-00001,서울특별시 용산구 서빙고로57길 10,04384 서울특별시 용산구 서빙고로57길 10 (서빙고동),--,"협회 및 단체, 수리 및 기타 개인서비스",기타자영업,37.5203263,126.992744
6af40850-41ed-4fad-82d3-22a7034c33ad,김영훈 /신한,김영훈,개인,000-00-00000,제주특별자치도 서귀포시 일주동로 8137,63601 제주특별자치도 서귀포시 일주동로 8137 (하효동),010-3400-5577,"협회 및 단체, 수리 및 기타 개인서비스",기타자영업,33.2603635,126.6180117
695acc67-b3ce-4b68-872e-872ce4ec374c,김옥자 / 기업,김옥자,개인,000-00-00000,경기도 광주시 태봉로 225(고산동,"12790 경기도 광주시 태봉로 225 209동 904호(고산동, 더샵오포센트리체)",031-783-8897,"협회 및 단체, 수리 및 기타 개인서비스","기타모집수당,채권회수수당",37.384985,127.2297262
ea26909e-8849-4f33-a599-b8d7313e3616,김요한,김요한,개인,000-00-00000,서울특별시구 행당로 82 (행당동,"04717 서울특별시 성동구 행당로 82 (행당동, 행당한진타운)",010-6568-9987,"협회 및 단체, 수리 및 기타 개인서비스","기타모집수당,채권회수수당",37.5558801,127.0292075
75f22ff6-e4c1-4ae3-9139-a82458e1c7a1,김용숙,김용숙,개인,000-00-00000,서울특별시 노원구 한글비석로46나길 10(상계동,"01652 서울특별시 노원구 한글비석로46나길 10 102동 407호(상계동, 금호아파트)",010-2704-5454,서비스(사회/수리및개인)업,보험설계사/보험중개사,37.6672865,127.0688196
59b69bd5-2dc0-4b9e-a305-c9682a177a44,김용운 주택임대,김용운,개인,580-96-00509,경기도 고양시 일산동구,"10305 경기도 고양시 일산동구 숲속마을1로 116 , 707동 1105호(풍동, 숲속마을7단지아파트)",010-7104-5719,부동산업,주거용 건물 임대업,37.677411,126.7988794
c4af501f-65ef-455d-b2a1-7793df64e8a0,김용주,김용주,개인,000-00-00000,경기도 성남시 분당구 야탑로161번길 8-5,13504 경기도 성남시 분당구 야탑로161번길 8-5 (야탑동),010-5427-1984,"협회 및 단체, 수리 및 기타 개인서비스",기타자영업,37.4105043,127.1370796
c7307ece-f031-4d24-843d-b3f393e9fa0b,김용팔,김용팔,개인,000-00-00001,전라남도 장흥군 장흥읍 영전1길 117,59335 전라남도 장흥군 장흥읍 영전1길 117,010-5656-1866,,,34.6681618,126.8796665
decc0941-1de9-45c9-9945-5f3c8bf95aba,김용혜 / 기업,김용혜,개인,000-00-00000,경기도 안양시 만안구 예술공원로 153-41(석수동,"13911 경기도 안양시 만안구 예술공원로 153-41 B동 201호(석수동, 늘푸른빌2차)",031-783-8897,"협회 및 단체, 수리 및 기타 개인서비스","기타모집수당,채권회수수당",37.4201874,126.924432
81834144-ca3a-4615-b812-4a1f7ad61d17,김유일,김유일,개인,000-00-00000,경기도 성남시 분당구 서판교로 188,13473 경기도 성남시 분당구 서판교로 188 (판교동),010-2374-8710,"협회 및 단체, 수리 및 기타 개인서비스",보험설계사,37.4024935,127.0928684
1836f72b-e701-409d-ace8-c0ab9ff2f137,김윤섭,김윤섭,개인,000-00-00000,서울 중랑구 용마산로 252,02258 서울 중랑구 용마산로 252 101동 2007호,010-7262-8595,"협회 및 단체, 수리 및 기타 개인서비스",기타자영업,37.5762577,127.0897874
0e9d97ac-0600-4f0c-84c5-0d41fb4d77aa,김윤식,김윤식,개인,130-35-29197,경기 부천시 소사구 은성로76번길 17,14763 경기 부천시 소사구 은성로76번길 17 9014동 106호 (소사본동),02-6053-2740,부동산업,점포(자기땅),37.4740522,126.8004192
bb7030fd-65ac-4e0b-9b17-40eaba70795c,김은경,김은경,개인,000-00-00000,경기 남양주시 진접읍 해밀예당1로 491002호,12056 경기 남양주시 진접읍 해밀예당1로 49 1103동1002호,010-4071-6925,"협회 및 단체, 수리 및 기타 개인서비스",기타자영업,37.7185458,127.1994362
e024e36c-939d-41bf-b446-5ec26fc141df,김은식임대(처인구),김은식,개인,840-35-00507,경기도 용인시 처인구 모현읍 곡현로823번길 14,17033 경기도 용인시 처인구 모현읍 곡현로823번길 14,010-5327-0648,부동산업,"비주거용 건물 임대업(점포, 자기땅)",37.3542576,127.2285643
54c06630-d37b-499f-b34d-bd4617e53fbc,김은정 / 기업전략,김은정,개인,000-00-00000,경기도 의왕시 평의길 48(포일동,"16022 경기도 의왕시 평의길 48 105동 1002호(포일동, 위브호수마을1단지)",031-783-8897,서비스(사회/수리및개인)업,기타모집수당(증권투자상담사포함)/채권회수수당,37.3909089,126.9783669
a9823238-51bc-48f3-9ba4-780f34f4f1a2,김인순,김인순,개인,000-00-00000,대전광역시 대덕구 대덕대로 15554704호 (석봉동,"34304 대전광역시 대덕구 대덕대로 1555 105동4704호 (석봉동, 금강엑슬루타워)",--,서비스(사회/수리및개인)업,다단계판매원,36.4490954,127.4244898
6f2c2a25-26a1-4e51-a6c9-940ad2a10f4d,김자욱,김자욱,개인,000-00-00000,서울특별시 금천구 독산로10길 21,08643 서울특별시 금천구 독산로10길 21 (시흥동),010-2630-2278,서비스,기타자영업,37.4502104,126.9070926
ae737064-25b5-42b9-b6f4-1cc8a5fa8131,김장섭 부동산,김장섭,개인,128-34-35189,경기도 고양시 일산동구 중앙로1261번길 55,10402 경기도 고양시 일산동구 중앙로1261번길 55 (장항동),010-7252-6418,부동산,임대,37.6575766,126.7708648
267bead9-b923-4862-a388-3c4f9d8759bd,김정수_ 렉카,김정수,개인,000-00-00000,경기도 성남시 수정구 수정로74번길 33-1,13321 경기도 성남시 수정구 수정로74번길 33-1 (수진동),010-6846-0846,서비스(사회/수리및개인)업,기타자유직업,37.4370779,127.1294095
cacb58f1-a636-434b-aa9f-9149eb8fa319,김정애,김정애,개인,124-41-93773,경기도 성남시 분당구 판교로 697304호(야탑동,"13511 경기도 성남시 분당구 판교로 697 A동304호(야탑동, 분당테크노파크)",--,부동산업,아파트형공장임대,37.4062703,127.144621
0a61fc8b-5d37-4d3a-92b7-c8e5639cc75a,김정원(63),김정원,개인,000-00-00000,경기도 성남시 중원구 둔촌대로401번길 11(상대원동,"13225 경기도 성남시 중원구 둔촌대로401번길 11 비01호(상대원동,예인아트빌)",010-2705-2466,"협회 및 단체, 수리 및 기타 개인서비스",기타자영업,37.4344381,127.1614831
8f3416b0-0120-499d-a938-02191b6fb04b,김정은 임대(한라시그마밸리),김정은,개인,208-56-00071,경기도 성남시 중원구 둔촌대로 545(상대원동,"13215 경기도 성남시 중원구 둔촌대로 545 13층 1303호(상대원동, 한라시그마밸리)",010-4598-5555,부동산업 및 임대업,"비주거용 건물 임대업(점포,자기땅)",37.4320354,127.1773854
51d58a16-9b05-4ead-a55d-104963430bf0,김정현 / 기업,김정현,개인,000-00-00000,충청북도 제천시 백운면로 14-8,27101 충청북도 제천시 백운면 덕동로 14-8,031-783-8897,"협회 및 단체, 수리 및 기타 개인서비스","기타모집수당,채권회수수당",37.1804602,127.9958846
198d914d-2276-4b0b-a322-fc8abf6f5086,김제영광교회,하재삼,개인,405-89-00568,전북특별자치도 김제시 도작로 61,54397 전북특별자치도 김제시 도작로 61 (신풍동),--,,,35.8002891,126.9013446
f80d4c7c-d229-4cec-8441-cf128fc6ef0e,김종득(강문),김종득,개인,118-27-00521,강원특별자치도 강릉시 창해로 307 (강문동,"25467 강원특별자치도 강릉시 창해로 307 B동 1426호 (강문동, 세인트존스호텔)",010-9904-3774,부동산업,"비주거용 건물 임대업(점포, 타인땅)",37.7987264,128.913924
76a2f9c2-473c-4729-8676-87555ff3f642,김종득(분당),김종득,개인,746-11-01135,경기도 성남시 분당구 서현로210번길 16 (서현동,"13591 경기도 성남시 분당구 서현로210번길 16 1동 203호 (서현동, 유성트윈프라자1차)",010-9904-3774,부동산업,"비주거용 건물 임대업(점포, 자기땅)",37.3860839,127.1243444
759fb195-bb59-43bb-983f-35cfb584499e,김종득(위례),김종득,개인,849-03-00594,경기도 성남시 수정구 위례광장로 328 (창곡동,"13640 경기도 성남시 수정구 위례광장로 328 1동 507호 (창곡동, 우성위례타워)",010-9904-3774,부동산업,"비주거용 건물 임대업(점포, 자기땅)",37.4713073,127.1427849
ca1d3469-2c72-4e92-a2c0-5c171560af6f,김종철,김종철,개인,436-45-00234,경기도 용인시 처인구 백암면 덕평로26번길 67,17172 경기도 용인시 처인구 백암면 덕평로26번길 67,010-8888-6654,부동산업,"비주거용 건물 임대업(점포, 자기땅)",37.1757467,127.3757042
d511477b-e3b0-4d04-ab84-914ddc71ba3f,김주완,김주완,개인,000-00-00000,인천광역시 서구 석남로 90-10 (석남동,"22795 인천광역시 서구 석남로 90-10 (석남동, 중앙주택)",010-7338-9751,서비스(사회/수리및개인)업,기타자유직업,37.5002226,126.6714404
3f6aaeeb-86d9-4613-8e95-f9601bbf8c12,김지영,김지영,개인,000-00-00000,경기 화성시 동탄대로 495,18478 경기 화성시 동탄대로 495 (오산동),010-9905-5392,"협회 및 단체, 수리 및 기타 개인서비스",기타자영업,37.1979629,127.0982606
edb12c04-7218-49a8-abbe-02d99c653ad9,김지은,김지은,개인,000-00-00000,서울 양천구 318 114하이빌,158804 서울 양천구 목3동 318 114 목동하이빌 402호,010-3297-3859,서비스(사회/수리및개인)업,작가,37.5247402,126.8553909
47657011-2473-444d-866e-cfb415134445,김창수,김창수,개인,221-89-01896,강원특별자치도 춘천시 후석로 381,24254 강원특별자치도 춘천시 후석로 381 (후평동),--,,,37.8846627,127.7466895
6d29078f-ddbb-46cc-b836-cfef4b242804,김천은혜교회,조영일,개인,510-82-61698,경상북도 김천시 삼애2길 70,39555 경상북도 김천시 삼애2길 70 (신음동),--,,,36.13348209999999,128.1286024
6496312e-0fbf-41cf-a76f-1267f7ebaf9d,김철환,김철환,개인,000-00-00000,서울특별시구 명일로 293(길동,"05298 서울특별시 강동구 명일로 293 509동 905호(길동, 삼익파크)",--,,,37.5438556,127.147483
c86032aa-1e4b-4409-849d-4e7e1d5e8b56,김태연,김태연,개인,000-00-00000,서울특별시 동대문구 장한로28길 8,02523 서울특별시 동대문구 장한로28길 8 (장안동),010-4895-9950,"협회 및 단체, 수리 및 기타 개인서비스",기타자영업,37.5728485,127.0724355
1fa4ad7a-da04-4517-b238-133af041d20b,김평화,김평화,개인,133-89-00061,경기도 광명시 새터로 96-7,14269 경기도 광명시 새터로 96-7 (광명동),--,,,37.4757573,126.8572301
18d5b3ec-9d01-4a07-9697-fc9df40e10bd,김포흰돌교회,성경철,개인,137-82-65636,경기도 김포시 월곶면 문수산로414번길 28-1,10000 경기도 김포시 월곶면 문수산로414번길 28-1,--,,,37.7608574,126.5330833
1aaeeee5-2072-4019-ac22-675bea513466,김하님,김하님,개인,127-82-07532,경기도 의정부시 장금로78번길 1-5,11747 경기도 의정부시 장금로78번길 1-5 2층 (신곡동),--,,,37.7424109,127.0627372
5bf73931-d359-490a-b248-9394097a1c8d,김현진 주택임대,김현진,개인,274-94-01458,서울특별시 강남구 압구정로 321 (압구정동,"06007 서울특별시 강남구 압구정로 321 3동 709호 (압구정동, 한양아파트)",010-4243-1430,부동산업,주거용 건물 임대업,37.5291557,127.0381668
55237c50-e163-4e15-914c-971eb157f6ed,김현철,김현철,개인,122-82-60944,인천광역시 계양구 오조산로 97 (용종동,"21065 인천광역시 계양구 오조산로 97 (용종동, 온누리교회)",--,,,37.539647,126.738672
87fd5c90-2e75-4a40-8bfd-81f151b46248,김혜영 주택임대,김혜영,개인,649-94-01313,경기도 성남시 수정구 단대로15번길 2 (단대동,"13142 경기도 성남시 수정구 단대로15번길 2 (단대동, 코오롱하늘채)",010-8297-7538,부동산업 및 임대업,주거용 건물 임대업(일반주택임대),37.4520912,127.1574365
847edb8d-becb-496d-9a12-7c5b7e33d34e,김화란,김화란,개인,204-13-73876,서울특별시 동대문구 회기로25가길 1,02451 서울특별시 동대문구 회기로25가길 1 (이문동),010-6373-1008,부동산업 및 임대업,주거용 건물 임대업(일반주택임대),37.5932739,127.0572848
fdd79d0e-1bd0-4ee4-b88f-0d9ce270bb1c,김희선,김희선,개인,127-82-07532,경기도 의정부시 장금로78번길 1-13,11747 경기도 의정부시 장금로78번길 1-13 102호 (신곡동),--,,,37.7424567,127.0628759
d9d09cb1-2815-44ed-9e02-8476480968b0,김희정,김희정,개인,000-00-00000,서울특별시 송파구 가락로 12601호,05693 서울특별시 송파구 가락로 12 102동601호(석촌동),010-9126-9070,"협회 및 단체, 수리 및 기타 개인서비스","서적외판원,학습지방문판매원,화장품외판원,정수기,자동차방문판매원,기타외판원",37.5048226,127.1105982
5089b387-5cfe-4b5d-8cc3-bfed47a979d8,김희정 주택임대,김희정,개인,000-00-00000,경기도 성남시 분당구 서현로 216,"13591 경기도 성남시 분당구 서현로 216 1216호, 1303호 (서현동, 분당오벨리스크)",--,부동산업,주거용 건물 임대업,37.3862075,127.1261756
b749dba1-475c-4b58-a89c-e61397d97f69,까만소,강민오,개인,128-35-99351,경기도 고양시 일산서구 대산로 106(주엽동,"10375 경기도 고양시 일산서구 대산로 106 109동 602호(주엽동, 강선마을1단지아파트)",010-3718-4495,서비스,"행사대행, 레크레이션",37.6694246,126.7620068
4d06f22b-0cb3-4847-ad2e-f97722fd5ca3,까사벨로,윤영탁,개인,113-18-21529,서울특별시 구로구 디지털로26길 61 (구로동,"08389 서울특별시 구로구 디지털로26길 61 203호 (구로동, 에이스하이엔드타워2차)",010-3706-7141,부동산업,점포(자기땅),37.4811666,126.8953821
5f1a8016-783a-4845-a613-39be09cf17f4,꽃담은 시루,유순영,개인,125-31-00185,경기도 성남시 분당구 운중로146번길 35-7,13467 경기도 성남시 분당구 운중로146번길 35-7 1층 101호 (운중동),010-8935-6736,제조업,떡류 제조업,37.3907089,127.0824055
9cec57a5-5727-44ea-a12a-3538f1fe2727,꽃의시간,김수연,개인,169-92-01695,서울특별시 종로구 인사동5길 54,03149 서울특별시 종로구 인사동5길 54 1층(공평동),010-6323-1866,도매 및 소매업,화초 및 식물 소매업,37.572198,126.9834115
c70cfab3-0b5f-41e8-af3b-316e1046fbf7,꽃피는인생,이장범,개인,570-34-01236,경기도 용인시 처인구 원삼면 죽양대로1626번길 2-23,17166 경기도 용인시 처인구 원삼면 죽양대로1626번길 2-23,010-5377-1701,부동산업,"비주거용 건물 임대업(점포, 자기땅)",37.183343,127.3352426
19c8a80f-ec59-4c2e-9f3c-331aad2c239c,꿈마을예인교회,김순주,개인,316-82-66989,경기도 수원시 팔달구 화산로 24 (화서동,"16425 경기도 수원시 팔달구 화산로 24 (화서동, 꽃뫼버들마을 신동아아파트)",--,,,37.2868882,126.9866265
366f590f-671e-4af4-b4ba-ee53a6e3dc7b,꿈을이루는교회,강범승,개인,312-82-77562,충청남도 천안시 동남구 통정2길 5-22,31204 충청남도 천안시 동남구 통정2길 5-22 (신방동),--,,,36.7793308,127.1294507
8cecec78-b102-4f79-b67b-ce5a6393d304,꿈의교회,조성,개인,312-82-72266,충청남도 천안시 서북구 오성8길 29 (두정동,"31090 충청남도 천안시 서북구 오성8길 29 (두정동, 꿈의교회)",--,,,36.8329773,127.1313415
651650e5-007d-4722-a2e5-241cae4afe05,꿈이가득한교회,김세광,개인,310-82-61161,충청남도 예산군 삽교읍 애향10길 4,32416 충청남도 예산군 삽교읍 애향10길 4,--,,,36.6607553,126.6822803
d837c92c-5fe4-44a9-afa4-4f15405e8ea4,꿈이있는교회,박세희,개인,221-82-72179,부산광역시 동래구 충렬대로 506 (안락동,"47905 부산광역시 동래구 충렬대로 506 (안락동, 우양빌딩1)",--,,,35.1940672,129.11304
38c44d8a-1ddb-4728-a33a-0d1148f697d2,나노워시,나성기,개인,890-07-00061,경기도 성남시 분당구 대왕판교로 346,13550 경기도 성남시 분당구 대왕판교로 346 (궁내동),010-3956-0580,서비스(사회/수리및개인)업,"자동차세차,외형복원",37.3745931,127.1020657
2b2707a9-65b0-4e2e-873c-9f5f61c43949,나누림교회,전상학,개인,116-82-64659,강원특별자치도 삼척시 진주로 38 (남양동,"25921 강원특별자치도 삼척시 진주로 38 (남양동, 던킨도너츠)",--,,,37.4441691,129.1641675
27f81510-6424-4d56-a265-327f8a69131f,나눔과섬김의교회,이승용,개인,407-82-73578,전북특별자치도 전주시 덕진구 백제대로 555,54898 전북특별자치도 전주시 덕진구 백제대로 555 4층 402호 (금암동),--,,,35.8404262,127.1304524
18c8c3e0-a04c-4f64-9bc5-4af6b2fb017c,나눔교회,이성광,개인,207-89-02550,서울특별시 노원구 공릉로58마길 27 (하계동,"01808 서울특별시 노원구 공릉로58마길 27 (하계동, 나눔아트센터)",--,,,37.6364237,127.0776514
4b0b12bb-fbc4-450c-8557-094af08344ff,나들목은혜교회,최재훈,개인,312-82-61283,충청남도 아산시 용화고길 29 (용화동,"31572 충청남도 아산시 용화고길 29 (용화동, 나들목교회)",--,,,36.7730202,127.0051938
0a8981fd-2776-4de1-a2eb-98aedb81d73c,나라자원,안재우,개인,236-65-00840,경기도 용인시 처인구 모현읍 곡현로 693,17032 경기도 용인시 처인구 모현읍 곡현로 693 (덕지산업),010-7722-8116,도매 및 소매업,재활용 수거 및 판매,37.3455377,127.2259089
41f852d2-711b-4d40-92a9-1fbdb9fbd5fd,나주서림교회,이성현,개인,891-89-00041,전라남도 나주시 월정5길 81,58329 전라남도 나주시 월정5길 81 (빛가람동),--,,,35.0092175,126.7920118
421e00fb-3111-482c-af7f-e3cfa5cccac6,나주와교회,박병철,개인,611-82-67466,전라남도 나주시 문화로 204,58325 전라남도 나주시 문화로 204 (빛가람동),--,,,35.0167743,126.7844626
d0fd1ed2-b67b-4697-b740-da34a6aa6d79,나주중부교회,이도훈,개인,514-82-88928,전라남도 나주시 나주천2길 64 (금계동,"58258 전라남도 나주시 나주천2길 64 (금계동, 나주중부교회)",--,,,35.030628,126.7128325
043e121c-cafc-401e-adab-90726a27c795,나주혁신장로교회,박용주,개인,232-82-61987,전라남도 나주시 그린로 341,58325 전라남도 나주시 그린로 341 (빛가람동),--,,,35.0169957,126.793944
5f395fe5-45f2-42e8-9140-c58a63bee14f,남궁환임대,남궁환,개인,339-23-01338,제주특별자치도 서귀포시 일주서로 972,63534 제주특별자치도 서귀포시 일주서로 972 (색달동),010-3834-6923,부동산업,임대,33.2582437,126.4068475
d3d7ad56-7b45-4e68-9e17-3e81a1ac1787,남도한식뷔페,박영애,개인,539-10-01530,경기도 용인시 처인구 모현읍 곡현로 591,17031 경기도 용인시 처인구 모현읍 곡현로 591 1층,010-7159-8768,숙박 및 음식점업,한식 일반 음식점업,37.3369063,127.2228523
db2d601d-16c2-4359-b411-815374d53ff3,남목교회,백문흠,개인,233-82-63033,울산광역시 동구 남목21길 4 (동부동,"44005 울산광역시 동구 남목21길 4 (동부동, 남목교회)",--,,,35.5440277,129.4302185
242ec375-fb0d-40af-9248-f9d8f56fb806,남부제자들교회,강진구,개인,314-82-90708,대전광역시 동구 대전로 471,34690 대전광역시 동구 대전로 471 (가오동),--,,,36.3077171,127.4507949
eff8cddd-248c-4138-9663-2f5ee4eff713,남은교회,정성엽,개인,135-82-62235,경기도 용인시 수지구 심곡로 16 (상현동,"16862 경기도 용인시 수지구 심곡로 16 (상현동, 서원마을5단지금호베스트빌)",--,,,37.3069419,127.0782489
1d1e649c-75d2-4630-ba4d-1594d5079efb,남평교회,전병동,개인,225-82-62071,강원특별자치도 정선군 북평면 송석길 132-4,26103 강원특별자치도 정선군 북평면 송석길 132-4 (남평성결교회),--,,,37.4303627,128.6626395
bbd00a20-6785-467f-beca-002c7042ed1a,남한산성 벌꿀농장체험장,윤성민,개인,129-92-96520,경기도 성남시 수정구 금토동 646,461380 경기도 성남시 수정구 금토동 646,--,도소매,꿀,37.4028918,127.0739335
5e427cce-e2b2-4178-a13b-dc284bdcc8f0,남한산성벌꿀농장,윤문,개인,129-39-37093,경기도 성남시 수정구 고등로 57(고등동,"13105 경기도 성남시 수정구 고등로 57 101동 1212호(고등동, 고등마을)",010-7630-9431,"농업, 임업 및 어업",그외 기타 축산업,37.431073,127.0993362
6822e075-cfdf-43af-9783-5ffd07fb3f9d,낮은자리교회,김종민,개인,416-82-87493,세종특별자치시 조치원읍 조치원4길 163,30035 세종특별자치시 조치원읍 조치원4길 163,--,,,36.5945833,127.3010107
0b1d59dc-914d-42a3-aa27-12d2ac7f275b,내동교회,정인창,개인,207-82-61021,전라남도 나주시 봉황면 도천로 184-22,58237 전라남도 나주시 봉황면 도천로 184-22,--,,,34.9670803,126.8189849
fc2f4e3d-e84b-47de-ae49-0b2d1dfd2f87,내서제일교회,박성일,개인,608-89-03349,경상남도 창원시 마산회원구 내서읍 중리상곡로 53,51229 경상남도 창원시 마산회원구 내서읍 중리상곡로 53 (내서제일교회),010-2399-3576,,,35.2459075,128.5072528
f9876b5e-4979-4735-93c7-1f404f03bcea,너드,조은서,개인,416-25-93202,경기도 성남시 중원구 둔촌대로52번길 3-17,13383 경기도 성남시 중원구 둔촌대로52번길 3-17 1층 102호(성남동),010-3039-5171,숙박 및 음식점업,커피 전문점,37.4282455,127.1255592
39cf41bd-7147-4657-8179-9e5649f33c7c,너른샘교회,박진호,개인,106-82-68319,서울특별시 강남구 선릉로 334 (대치동,"06199 서울특별시 강남구 선릉로 334 지하층 1호 (대치동, 한성빌딩)",--,,,37.4991887,127.0633458
3f81b5cf-111b-4587-9dbe-39272075044d,넘버원 PC방 -안영식,안영식,개인,205-05-08451,서울특별시 강북구 도봉로 136(미아동,"01161 서울특별시 강북구 도봉로 136 지층 1호(미아동, 풍양빌딩)",010-7728-1245,서비스(예술/스포츠 및 여가관련)업,인터넷PC방,37.62110190000001,127.0287095
25bb188e-6ba5-4760-8e6b-f13d6ad0710c,넘치는교회,박용대,개인,138-89-04188,경기도 안양시 동안구 관악대로388번길 21 (관양동,"13947 경기도 안양시 동안구 관악대로388번길 21 (관양동, 성도개발)",--,,,37.4033928,126.9663996
4a9c4d01-81b4-4ff2-b574-51acdf095944,네일그녀와(김도연),김도연,개인,776-22-00735,광주광역시 북구 동문대로249번길 7,61135 광주광역시 북구 동문대로249번길 7 2층 207호(각화동),010-5870-0582,"협회 및 단체, 수리 및 기타 개인 서비스업",네일,35.1838416,126.9305746
a32d2a7f-ff88-4818-a057-f8382ff3b1d8,네일띵크,진혜양,개인,166-44-01185,서울특별시 서대문구 연희로11가길 36 신관1층,03707 서울특별시 서대문구 연희로11가길 36 신관1층(연희동),--,"협회 및 단체, 수리 및 기타 개인 서비스업",미용업(네일아트),37.5669645,126.9279861
89042043-3d4e-40bc-bdd5-9f53d271b093,네토피아PC방(청학)-이준영,이준영,개인,131-32-50902,인천광역시 연수구 비류대로278번길 8-3,21940 인천광역시 연수구 비류대로278번길 8-3 3층(청학동),010-2772-4370,서비스업,PC방,37.4260216,126.6652287
142591d4-b60e-416d-b6f1-46f3e59557be,노단,노단,개인,108-82-76019,경기도 성남시 수정구 위례서일로 26 (창곡동,"13647 경기도 성남시 수정구 위례서일로 26 (창곡동, 창곡동559-6번지)",--,,,37.4647658,127.1386705
bef4d0da-041f-46ea-a039-28ebf57d8c1a,노블오블,노은채,개인,371-72-00419,경기 동두천시 생연로 91,11331 경기 동두천시 생연로 91 103동 602호,--,부동산업,주거용 건물 개발 및 공급업,37.9011664,127.0493783
e7668b20-2dad-4f98-87d2-f8e8d1cf0297,노블오블투,노용숙,개인,850-19-02235,충북 청주시 흥덕구 강내면 탑연월곡길 86-10,28171 충북 청주시 흥덕구 강내면 탑연월곡길 86-10 나동 304호,010-0000-0000,부동산업,주거용 건물 개발 및 공급업,36.6236794,127.3649561
2def6946-5248-488e-8001-836c9ecfe7eb,노상준임대,노상준,개인,402-43-84218,경기도 용인시 기흥구 사은로126번길 46(보라동,"17079 경기도 용인시 기흥구 사은로126번길 46 상가동 지하층 101호(보라동, 민속마을현대모닝사이드아파트)",--,부동산업,비주거용 건물 임대업,37.250844,127.1198139
05cf93d7-0052-4451-958f-347fe21e11bf,노송교회,김성용,개인,418-89-00448,전북특별자치도 전주시 완산구 물왕멀3길 28-37 (서노송동,"55006 전북특별자치도 전주시 완산구 물왕멀3길 28-37 (서노송동, 노송교회)",--,,,35.8276307,127.1489198
847e2102-e885-4599-8c90-fcbc8ada205c,노은 스크린골프존,남수은외1명,개인,767-01-03301,대전광역시 유성구 노은동로75번길 52 (노은동,"34091 대전광역시 유성구 노은동로75번길 52 (노은동, 서림빌딩)",010-9555-1990,"예술, 스포츠 및 여가관련 서비스업",골프 연습장 운영업,36.3675089,127.320626
cf4eba35-d741-4eeb-935a-cf007c3060ad,녹천탕,이경,개인,128-20-54419,부산광역시 서구 해돋이로335번길 4,49239 부산광역시 서구 해돋이로335번길 4 (부용동2가),010-8814-8619,"협회 및 단체, 수리 및 기타 개인 서비스업",대중탕,35.1059171,129.0162151
55e3ee56-a342-4748-961f-8dba44ae353a,논산교회,민경휘,개인,308-82-66182,충청남도 논산시 시민로 149 (내동,"32988 충청남도 논산시 시민로 149 (내동, 논산성결교회)",--,,,36.1841143,127.1058727
70d1ed55-b131-47be-937b-4de308271381,놀PC방(작동)-엄태민,엄태민,개인,776-19-00720,경기도 부천시 까치로 102(작동,"14475 경기도 부천시 까치로 102 2층(작동, 한은빌딩)",010-6207-5609,"예술, 스포츠 및 여가관련 서비스업",컴퓨터 게임방 운영업,37.5154532,126.8060635
c70f5048-e44d-4d14-bf1c-8de6177410c7,놀라운교회,김영성,개인,174-82-65862,경기도 수원시 권선구 수인로 187,16410 경기도 수원시 권선구 수인로 187 (구운동),--,,,37.2763804,126.9791296
759fa0f4-40df-41b6-b1b4-d40005e93c39,농민축산,김근태,개인,157-05-01557,경기도 용인시 처인구 포곡읍 포곡로 97-3,17027 경기도 용인시 처인구 포곡읍 포곡로 97-3,010-3129-1957,도소매,식육판매,37.2689709,127.2156284
771b80e4-3a73-4441-8d19-6650f83907f6,농부의 푸줏간,허은재,개인,468-19-02303,경기 성남시 중원구 제일로63번길 15,13368 경기 성남시 중원구 제일로63번길 15 1층 101호 건물북쪽 출입문 옆,010-9286-2332,제조업,육류 기타 가공 및 저장 처리업(가금류 제외),37.4321851,127.1340664
95852671-de66-4f3c-9d7d-06d0e33b798d,농업회사법인 한스 주식회사,이한슬기,법인,840-81-01110,경기도 하남시 서하남로47번길 252-12,12991 경기도 하남시 서하남로47번길 252-12 (감북동),010-9232-1725,도소매,"농산물,가공품,공산품,수입식품",37.5248176,127.1562284
4565b70a-7160-4c65-8f78-89373b1363a9,농장마켓,김근태,개인,162-11-02151,서울특별시 송파구 새말로 62,"05841 서울특별시 송파구 새말로 62 , 1476호(문정동, 송파 푸르지오시티)",010-3129-1957,도매 및 소매업,전자상거래 소매업,37.4807632,127.1212484
4bb2b375-106e-4e64-a105-16fb462496dc,누림과 이룸,정영구,개인,338-94-00414,서울특별시 동작구 성대로14길 49,07045 서울특별시 동작구 성대로14길 49 (상도동),010-3334-1668,출판.영상.방송통신및정보서비업,출판업,37.4960524,126.9376332
db3f6ff4-6fce-411c-939b-d151165567d3,누림인테리어,이병용,개인,109-27-07312,경기도 남양주시 진접읍 장현천로24번길 10,12011 경기도 남양주시 진접읍 장현천로24번길 10 장현리 상가 2층,010-8525-5622,건 설 업,"도배, 실내 장식 및 내장 목공사업",37.7193226,127.1845568
e259ca5c-53fe-4cc5-945a-610161cd9e78,눈치 세븐(Nunchi Seven),SALVO ROJAS JULIETA,개인,508-61-19571,서울특별시 송파구 법원로4길 5(문정동,"05855 서울특별시 송파구 법원로4길 5 922호(문정동, 송파법조타운푸르지오시티)",010-9753-1277,도매 및 소매업,전자상거래 소매업,37.4907646,127.126285
91e8fdef-98df-4461-88bd-3f0af78a85bc,뉴스타,박유주,개인,737-17-00866,경기도 용인시 기흥구 중부대로 18423층(영덕동,"17095 경기도 용인시 기흥구 중부대로 184 제에이동 제23층 제2313호(영덕동, 힉스유타워)",010-3732-7700,부동산업,"비주거용 건물 임대업(점포, 자기땅)",37.2730882,127.0825421
90f53fef-1cc9-40d1-a16c-7ae5828a6de7,뉴조이스쿨,김하늘,개인,105-82-86968,경기도 용인시 기흥구 흥덕2로 105번길 5,경기도 용인시 기흥구 흥덕2로 105번길 5,--,,,37.2767651,127.0737177
8e43f595-7b60-4162-a094-2bcc652f6f8a,늘봄플라워_송인섭,송인섭,개인,201-98-21624,서울특별시 송파구 성내천로16길 17,05742 서울특별시 송파구 성내천로16길 17 동서울화훼단지내 특 3호,010-5265-3310,도매 및 소매업,화초 및 식물 소매업,37.4984199,127.1394913
fa7fb0ed-6814-47be-806c-8cbc5e18d207,늘푸른교회,한익현,개인,312-82-64878,충청남도 천안시 서북구 성환읍 율금1길 221-34,31009 충청남도 천안시 서북구 성환읍 율금1길 221-34 (두진그린힐아파트),--,,,36.9056366,127.0995012
d23a1c40-7319-4cf4-8f54-db822f38cfbd,늘푸른교회,추병화,개인,122-82-82012,전북특별자치도 전주시 덕진구 견훤로 377,54916 전북특별자치도 전주시 덕진구 견훤로 377 (인후동2가),--,,,35.8447596,127.1531147
c65a583d-2458-4188-b19a-3231b49da06f,늘푸른언덕교회,강언덕,개인,629-89-00091,전라남도 나주시 상야4길 22,58217 전라남도 나주시 상야4길 22 316호 (빛가람동),--,,,35.0227438,126.7917336
01c242a1-da73-4682-853a-92c88c9d747e,늘해랑푸드,이상원,개인,196-01-03251,경기 광주시 문형산길 93 202-D16호,12820 경기 광주시 문형산길 93 202-D16호(신현동),031-767-4885,도소매업/제조업,축산물판매업/식육포장처리업,37.3654276,127.16645
0fdeec39-8561-4b28-948e-aa0d08790562,능곡감리교회,문성모,개인,507-82-74289,경기도 시흥시 승지로 7 (능곡동,"14995 경기도 시흥시 승지로 7 상가동 205호 (능곡동, 시흥능곡신안인스빌아파트)",--,,,37.3648649,126.8096942
237277d5-89bc-4848-aab0-c31b108fd2f4,다니엘교회,이영주,개인,125-82-61525,경기도 안성시 대덕면 내리9길 5-6,17547 경기도 안성시 대덕면 내리9길 5-6,--,,,37.0001789,127.2208828
bd5b92b5-9948-4758-9f58-f8b8c7e2c9e3,다다로지스,강원철,개인,203-56-02467,경기도 성남시 분당구 돌마로 364 24,"13600 경기도 성남시 분당구 돌마로 364 24,25호(수내동, 현대제일상가)",010-9488-9766,운수 및 창고업,통관 대리 및 관련서비스업,37.3699659,127.1236452
cf15796c-c20a-4b81-bc41-38f2f24bef2a,다온건축,김병오,개인,787-08-03449,강원특별자치도 횡성군 둔내면,25266 강원특별자치도 횡성군 둔내면 경관마을길 81-4,010-8256-7172,건 설 업,단독 주택 건설업,37.5235581,128.2350564
71edf99c-059b-4bf4-9090-e58e8b70a931,다올시스템,정병헌,개인,386-65-00295,경기도 성남시 분당구 이매로 13 (이매동,"13564 경기도 성남시 분당구 이매로 13 지하층 103호 (이매동, 뉴선경프라자)",010-2905-7455,서비스업,냉난방기 유지보수,37.3950209,127.1221755
669b7c03-5f0c-4b9f-863d-54552ae63ed0,다우상사,김동민,개인,215-02-45850,서울특별시 송파구 동남로28길 13,05739 서울특별시 송파구 동남로28길 13 1층 101호 (오금동),02-400-5772,도매,이화학기구외,37.5022135,127.139377
e4315be5-d9a1-42a7-b2e6-9e7b818e1afb,다우상사(인천),김동민,개인,302-69-00387,인천광역시구 구월남로 120 (구월동,"21558 인천광역시 남동구 구월남로 120 6층 121호 (구월동, 백세빌딩)",010-6271-4557,도매 및 소매업,그 외 기타 상품 전문 도매업,37.4530655,126.7027668
367b94b6-011a-42c8-8ad0-93cfdacb2049,다음세대코칭센터,전경호,개인,176-82-68341,서울특별시 서초구 안골2길 5-3,06794 서울특별시 서초구 안골2길 5-3 (내곡동),--,,,37.4559565,127.0645543
81150fb5-f1a1-4ea2-aded-4822dd35a129,다이나스포츠,김윤수,개인,220-03-74301,경기도 성남시 중원구 둔촌대로 484 207,"13229 경기도 성남시 중원구 둔촌대로 484 207,208,209(상대원동,시콕스타워)",031-777-9600,도매.제조,스포츠의류,37.4311215,127.1706485
25c37107-5f93-4ca1-82fa-368fd01d5045,다이렉트샵,이현석,개인,249-30-01751,경기도 안양시 동안구 안양판교로 26-14 (관양동,"13943 경기도 안양시 동안구 안양판교로 26-14 4층 401호 (관양동, 동진위츠빌)",010-9080-8442,도매 및 소매업,통신기기 소매업,37.3995585,126.9782246
3a613de6-30f8-49e0-8363-042cb32d5b65,다해유통,최혜정,개인,124-95-26355,경기도 수원시 권선구 입북로53번길 26-2,16367 경기도 수원시 권선구 입북로53번길 26-2 (입북동),010-2552-0633,도매 및 상품중개업,냉동수산물 도매업(일반),37.2961925,126.9574988
9143637b-8873-4d95-b2c7-e063b381b171,닥스 경영자문 교육연구소,조병호,개인,148-05-02324,서울특별시 관악구 쑥고개로16길 3,08831 서울특별시 관악구 쑥고개로16길 3 6층 601호(봉천동),010-4312-6780,"전문, 과학 및 기술 서비스업",경영 컨설팅업,37.4792233,126.9445676
1305712a-783a-4d33-bd07-12568634a61d,단양남부교회,송현주,개인,304-89-02114,충청북도 단양군 대강면 장림길 51,27027 충청북도 단양군 대강면 장림길 51 1층 (대강감리교회),--,,,36.9231954,128.3495949
3b41eff5-fac8-4a80-96e9-afa6f3be0477,단지내래미안이편한부동산중개법인 주식회사,김미영,법인,257-88-00550,경기도 성남시 수정구 위례동로 61(창곡동,"13645 경기도 성남시 수정구 위례동로 61 상가동 2층 6-1호(창곡동, 위례자연앤래미안이편한세상)",02-409-5200,부동산업,부동산중개 및 컨설팅,37.4670859,127.1464963
bd2251f1-f7d6-4e38-82e1-df2a9e7ef1d2,단향스터디카페,최화외1명,개인,626-06-02554,서울특별시 강북구 삼양로79길 20,01099 서울특별시 강북구 삼양로79길 20 2층(수유동),--,"예술, 스포츠 및 여가관련 서비스업",독서실 운영업,37.6309463,127.016612
4a636420-6def-4774-af5c-53f98c087a11,당산교회,정성호,개인,124-82-65310,경기도 화성시 송산면 용포로 185-2,18548 경기도 화성시 송산면 용포로 185-2,010-9738-6002,,,37.23140009999999,126.7533203
eb90130e-281c-460b-be2d-a4aeadcc8df3,당산알파,이미정,개인,732-45-01112,서울특별시 영등포구 당산로 240(당산동6가,"07223 서울특별시 영등포구 당산로 240 1층(당산동6가, 유상빌딩)",010-8669-5988,도매 및 소매업,"문구용품, 회화용품, 사무용품 도매업",37.5346602,126.9028802
aaf74d47-223e-4551-a352-1b2814eabeea,대가막국수,최예원,개인,139-13-62736,경기도 이천시 마장면 덕평로 781,17389 경기도 이천시 마장면 덕평로 781,010-9828-0113,음식점업,한식,37.22797389999999,127.3668176
8e5b9507-ec0a-45f3-b0eb-9ea441b1b90d,대관령교회,복항수,개인,226-82-65839,강원특별자치도 평창군 대관령면 대관령로 101,25344 강원특별자치도 평창군 대관령면 대관령로 101,--,,,37.6725761,128.7074537
8fd807ad-a4c3-4057-baf5-866111fcf501,대관령교회,정석희,개인,226-82-65839,강원특별자치도 평창군 대관령면 횡계길 7-4,25344 강원특별자치도 평창군 대관령면 횡계길 7-4 (기독교대한성결교회대관령교회),--,,,37.6730724,128.707576
f6f81823-bf87-4454-97aa-01516c452425,대광교회,박찬명,개인,140-82-69939,경기도 시흥시 정왕대로27번길 29 (정왕동,"15029 경기도 시흥시 정왕대로27번길 29 (정왕동, 신동아아파트정문)",--,,,37.3592692,126.7223156
d68b26cf-c192-481f-bb6b-09ae11e18e5c,대광교회,권선형,개인,126-82-71365,서울특별시구 고덕로97길 89 (강일동,"05216 서울특별시 강동구 고덕로97길 89 (강일동, 기독교대한성결교회대광교회)",--,,,37.5622411,127.1794913
caf4bbd8-d70c-4a5f-985e-9cd83a63c433,대광수산,정인기,개인,588-92-00499,전라북도 전주시 덕진구 동부대로 1177 (송천동2가,"54827 전라북도 전주시 덕진구 동부대로 1177 (송천동2가, 전주수산시장)",--,도매 및 소매업,수산물소매업,35.8717035,127.110069
9d35e069-d4e4-4c35-9eb9-02b9996e4b1b,대구소망교회,이원영,개인,502-82-84012,대구광역시 동구 반야월로30길 31,41114 대구광역시 동구 반야월로30길 31 (신기동),--,,,35.87147059999999,128.7047209
0888bbb8-c9c2-49e2-8805-097b03605e2c,대구한일교회,권태윤,개인,514-82-05873,대구광역시 달서구 앞산순환로49안길 90,42825 대구광역시 달서구 앞산순환로49안길 90 (송현동),--,,,35.8233523,128.5501401
c55a19ae-a7af-4275-bb25-a17b186f9f57,대남2태양광발전소,김은미,개인,149-17-00846,전라북도 장수군 산서면 쌍계리 19-17,597823 전라북도 장수군 산서면 쌍계리 19-17,010-9855-3043,"전기, 가스, 증기 및 수도사업",태양광발전소,35.5625709,127.4282628
28153b2c-5d54-4f19-9370-fe7c68e15647,대남태양광발전소,이귀남,개인,647-22-01945,전북특별자치도 김제시 청하면 관상리 223,"54311 전북특별자치도 김제시 청하면 관상리 223, 232-2",--,"전기, 가스, 증기 및 공기 조절 공급업",태양력 발전업,35.8736004,126.85565
5f30423a-2df0-4026-8573-ff5c1af271f1,대덕교회,박헌재,개인,176-82-67449,경기도 안성시 대덕면 신촌길 41-1,17544 경기도 안성시 대덕면 신촌길 41-1 (대덕교회),--,,,37.0200581,127.220569
650e466b-5e5b-4562-ac41-1063c7f83423,대도 인테리어,엄정도,개인,874-41-00272,강원도 횡성군 둔내면 둔방로 91-20,25266 강원도 횡성군 둔내면 둔방로 91-20,010-4468-3233,건설업,"인테리어,주택신축판매,조경",37.5108828,128.2026488
3826130b-7f80-4c52-b02e-05d837528aca,대동교회,서영석,개인,312-82-80316,충청남도 아산시 음봉면 음봉로409번길 6,31415 충청남도 아산시 음봉면 음봉로409번길 6 1층,010-4160-6523,,,36.8442264,127.0563036
6c2bdc90-b005-4c28-a6c4-188acab5ed52,대명교회,곽영희,개인,222-82-62354,강원특별자치도 태백시 통리1길 69-14 (통동,"26029 강원특별자치도 태백시 통리1길 69-14 (통동, 대명교회)",--,,,37.1712825,129.0364246
5b43e236-d862-4732-b83d-6b49e01b1786,대명창호,전성일,개인,219-04-19246,경기도 용인시 처인구 모현면 곡현로663번길 27-6,17031 경기도 용인시 처인구 모현면 곡현로663번길 27-6,031-322-3156,제조,샷시,37.3447403,127.2221952
af686ffb-9239-4741-a567-d118671ad6f3,대명창호(부동산),전성일,개인,219-04-19246,경기도 용인시 처인구 모현읍 곡현로663번길 27-6,17031 경기도 용인시 처인구 모현읍 곡현로663번길 27-6,031-322-3156,부동산업,"비주거용 건물 임대업(점포, 자기땅)",37.3447403,127.2221952
262d63c9-2e70-43f0-8618-23c7ae47f6f5,대박빌딩,문영기,개인,836-35-00681,서울특별시 구로구 경인로 163,08255 서울특별시 구로구 경인로 163 (오류동),010-2719-2712,부동산업,"비주거용 건물 임대업(점포, 자기땅)",37.4945102,126.8396769
34046c5d-f34b-4302-b56f-3ee8a9c54742,대박식자재마트,임재경,개인,522-27-01786,경기도 용인시 처인구 포곡읍 포곡로 91 외 3필지,17027 경기도 용인시 처인구 포곡읍 포곡로 91 외 3필지,010-7399-7950,도매 및 소매업,슈퍼마켓,37.2687709,127.2157662
98adfbbb-1aa7-4ef0-94e7-7ad9e963b4f3,대봉교회,하광영,법인,108-82-64041,서울 동작구 양녕로28길 35,07035 서울 동작구 양녕로28길 35,010-9039-5235,,,37.4982958,126.9457129
c967f820-ffac-43f0-9aac-c718f6cc8e5e,대봉교회,하광영,개인,108-82-64041,서울특별시 동작구 양녕로28길 35,07035 서울특별시 동작구 양녕로28길 35 (상도동),--,,,37.4982958,126.9457129
04dddff9-0427-465c-9aff-eda5dce50f36,대산광명교회,한대근,개인,310-89-00111,충청남도 서산시 대산읍 명지2로 183-32,31907 충청남도 서산시 대산읍 명지2로 183-32,--,,,36.9633369,126.410436
7a10dad1-ed63-48f9-a6b4-687703724b75,대산리 태양광발전소1호,강희래,개인,684-07-00113,전라남도 해남군 옥천면 대산리 산 32-1,536821 전라남도 해남군 옥천면 대산리 산 32-1,010-2401-5235,전기업,태양광발전,34.5489232,126.6750913
ccfba5d5-9796-4de8-b5df-02192294fb9c,대선운수,김대건,개인,825-10-01988,경기도 성남시 중원구 성남대로1151번길 14-6,13375 경기도 성남시 중원구 성남대로1151번길 14-6 302호(성남동),010-2952-6674,운수 및 창고업,일반 화물 자동차 운송업,37.4327137,127.127515
9986ff66-f3f5-49a3-9334-65732370d68d,대성교회,곽성찬,개인,116-82-68655,경기도 의정부시 둔야로49번길 43,11673 경기도 의정부시 둔야로49번길 43 401호 (의정부동),--,,,37.7401968,127.0370004
31087a1c-1b36-42e5-bf5e-6de1a82998ee,대성교회,차명호,개인,108-82-76076,충청남도 아산시 신창면 서부남로 820-26,31536 충청남도 아산시 신창면 서부남로 820-26,--,,,36.7811905,126.9327609
e588bf81-40d5-4c26-a6a1-244e719d6d1f,"대신,지물장식",김용증,개인,144-01-49028,서울특별시 양천구남로4길 6-23(신정동,"08104 서울특별시 양천구 목동남로4길 6-23 209동 301호(신정동, 목동2차우성아파트)",010-9127-1364,건설업,실내장식,37.5151795,126.8557093
b32fb337-20f0-4120-bc13-71f411abdedd,대안교회,전용우,개인,134-89-00142,경기도 안산시 상록구 화랑로 532 (성포동,"15298 경기도 안산시 상록구 화랑로 532 (성포동, 대한예수교장로회대안교회)",--,,,37.3205857,126.8455407
01e5928e-c6f8-4ebc-a1e6-7675578cf521,대영교회,정동윤,개인,402-89-10126,전북특별자치도 완주군 용진읍 완주로 812,55350 전북특별자치도 완주군 용진읍 완주로 812 (대영아파트),--,,,35.9344873,127.1749971
d652de4b-276e-4dcc-9767-9c8355d3f50c,대원배터리할인점,서용문,개인,814-50-00699,경기도 성남시 중원구 박석로 35 (상대원동,"13221 경기도 성남시 중원구 박석로 35 (상대원동, 청우빌라) 지하동 1호",010-5259-4029,도매 및 소매업,배터리,37.4360038,127.1657868
802d5b42-b7f6-426e-ae6e-998802b2019a,대유(어경우),어경우외1,개인,129-03-79702,경기 광주시 순암로 409,12768 경기 광주시 순암로 409 (중대동),010-5314-7933,부동산업,점포(자기땅),37.406932,127.2084138
2cb87259-913a-4c68-b27c-715302bc3835,대유(이영미),이영미,개인,129-03-79702,경기도 광주시 순암로 407,12768 경기도 광주시 순암로 407 (중대동),010-5314-7933,부동산업,"비주거용 건물 임대업(점포, 자기땅)",37.4013673,127.2231312
4a2d6b08-3a0c-46cd-9c55-eecfe7c63853,대은교회,서현철,개인,206-82-65801,서울특별시 광진구로47길 35-3 (중곡동,"04910 서울특별시 광진구 능동로47길 35-3 (중곡동, 대은교회)",--,,,37.5620537,127.0860822
2506a886-399f-415d-a62e-55b66b443721,대전새벽교회,최준학,개인,314-82-61519,대전광역시 서구 계룡로264번길 73,35274 대전광역시 서구 계룡로264번길 73 (월평동),--,,,36.3519172,127.3616065
1042ee71-fb8d-41b1-bc39-5903cc31c385,대주,김점애,개인,129-26-90439,경기도 성남시 중원구 산성대로382번길 52,13177 경기도 성남시 중원구 산성대로382번길 52 (금광동),010-5766-2342,제조업,가방/핸드백/지갑/보호용케이스,37.446313,127.1631406
44419389-f456-4501-88d6-1372233cad35,대주기획,김정은,개인,583-11-00480,경기도 성남시 중원구 둔촌대로457번길 27(상대원동,"13219 경기도 성남시 중원구 둔촌대로457번길 27 1010호(상대원동, 성남우림라이온스밸리)",--,"전문, 과학 및 기술 서비스업","패션, 섬유류 및 기타 전문 디자인업",37.4338944,127.1701384
0a884f4b-20a0-408a-b67c-08530dbeaa7a,대진금속,박윤석,개인,204-28-27944,서울특별시 중랑구 공릉로2라길 36 1-201(묵동,"131849 서울특별시 중랑구 공릉로2라길 36 1-201(묵동, 현대빌라)",010-3719-3935,건설업,전문건설하도급,37.6135713,127.0818378
d20b0b70-ac9f-41be-9ad7-45eeee4022c2,대진제일교회,한종흠,개인,415-89-00736,전라남도 해남군 산이면 새상골길 69,59011 전라남도 해남군 산이면 새상골길 69 (대진제일교회),--,,,34.6780621,126.423931
e708faeb-4190-4b02-82c8-c0e7bdd23850,대천강성교회,박정재,개인,101-89-02586,충청남도 보령시 옥갓티3길 24 (대천동,"33439 충청남도 보령시 옥갓티3길 24 (대천동, 태평양마트)",--,,,36.3540939,126.5952016
739ddca8-b278-47ed-bff0-ab2700011a29,대한기독간호사협회,이원희,법인,102-82-60009,서울특별시 종로구 통일로 246-20(무악동,"03025 서울특별시 종로구 통일로 246-20 102동 101호(무악동, 무악현대아파트)",02-735-6378,부동산업,점포(자기땅),37.5753812,126.9608045
22cfc3ae-23ab-455f-bd6c-883dbf538895,대한예수교장로회 송내사랑의 교회,박명배,법인,122-82-64241,경기 부천시 소사구 서촌로20번길 12 (송내동,"14741 경기 부천시 소사구 서촌로20번길 12 (송내동,송내사랑의교회)",010-3280-7720,부동산업및임대업,비주거용건물임대업,37.4859927,126.7465704
25aefb12-43d9-4ccc-9a77-c2273086d34d,대한예수교장로회구미교회,김대동,법인,129-82-62716,경기도 성남시 분당구 미금일로90번길 36,13627 경기도 성남시 분당구 미금일로90번길 36 주차장 (구미동),031-714-0014,서비스,주차장,37.3493193,127.1101126
90afa7ad-8720-4397-ba80-148b7e6359d5,대한예수교장로회총회유지재단,이순창,개인,101-82-15103,서울특별시 종로구 대학로3길 29,03128 서울특별시 종로구 대학로3길 29 (연지동),--,,,37.574425,127.0004612
1f16bc75-68a5-4cc2-86ca-b48e59e783c3,대호교회,안영희,개인,311-89-03367,충청남도 당진시 석문면 대호만로 2255,31700 충청남도 당진시 석문면 대호만로 2255 (대호교회),010-5423-5693,,,37.0481871,126.5146157
78ffed9a-7780-4a90-bf2a-095bbc75d96d,대흥교회,윤석호,개인,312-82-03755,충청남도 아산시 선장면 대흥길 25,31541 충청남도 아산시 선장면 대흥길 25 (감리교회),--,,,36.810722,126.8709988
b4ff155e-5f86-4061-b172-2f43cb0bb054,더 느루,염보현,개인,474-11-02845,서울특별시 관악구 신림로30길 17-8,08837 서울특별시 관악구 신림로30길 17-8 102호 (신림동),010-9359-1314,숙박 및 음식점업,숙박공유업,37.4730313,126.9360446
02489db1-777b-4403-b0d4-63bdc9499ba9,더나인PC방-대치동(서순경),서순경,개인,411-21-53454,서울특별시 강남구대로 221 (대치동,"06283 서울특별시 강남구 영동대로 221 지층 2호 (대치동, 서림상가)",010-4596-2965,서비스업,컴퓨터 게임방 운영업,37.4991887,127.0633458
8275dc12-2541-4fbd-91d1-e1471dafbc75,더넥스트프론티어즈,박한상,개인,666-89-00144,경기도 성남시 중원구 성남대로 1126 (성남동,"13365 경기도 성남시 중원구 성남대로 1126 403호 (성남동, 메가프라자)",--,,,37.4303456,127.1298975
d2eccdd7-c098-426e-9ffd-57161a352add,더락PC카페(변인숙),변인숙,개인,440-06-01140,부산광역시 북구 만덕3로 58,46571 부산광역시 북구 만덕3로 58 3층(만덕동),010-5330-4272,"예술, 스포츠 및 여가관련 서비스업",컴퓨터 게임방 운영업,35.2109949,129.0292909
4fca7df5-097a-4def-8899-408382f0ea74,더리치,최석환,개인,121-35-92925,경기도 화성시 동탄대로시범길 19(청계동,"18477 경기도 화성시 동탄대로시범길 19 1406동 3001호(청계동, 동탄역시범더샵센트럴시티)",010-5642-1278,"전문, 과학 및 기술 서비스업",경영 컨설팅업,37.1985135,127.1002917
d5381ff0-08b6-40ce-8f4b-1d81bb27a627,더바디핏PT 분당야탑2호점,김선규,개인,687-48-00959,경기 성남시 분당구 성남대로916번길 7(야탑동,"13506 경기 성남시 분당구 성남대로916번길 7 205호(야탑동, 서일빌딩)",010-4178-7911,"예술, 스포츠 및 여가관련 서비스업",체력 단련시설 운영업,37.4111506,127.1298424
3300bc6e-758b-479b-bfd5-d811f0a31562,더베이먼트 테라스스위트 1916호,임진형,개인,177-02-02108,부산광역시 중구 비프광장로 20,48981 부산광역시 중구 비프광장로 20 (남포동6가),010-2307-1140,부동산업,"비주거용 건물 임대업(점포, 자기땅)",35.0984378,129.0276519
7fceb31b-d850-44f3-b326-ea174117c654,더벤티(동림점),최웅,개인,572-07-02384,광주광역시 북구 북문대로242번길 5,61096 광주광역시 북구 북문대로242번길 5 1층(동림동),010-6530-8474,숙박 및 음식점업,커피 전문점,35.1877341,126.8658713
57b81ae7-2f96-40e6-ad1e-9b39d711ce5e,더블유(W)복싱클럽,김애경,개인,842-91-00339,울산광역시 중구 성안로 181,44422 울산광역시 중구 성안로 181 2층(성안동),010-8832-4717,교육서비스업,복싱도장,35.57657,129.3170025
00589dbd-ccff-4e42-a374-c7a89232060d,더블유(유태성),유태성,개인,876-04-02043,경기도 성남시 중원구 갈현로 18 B01호,13414 경기도 성남시 중원구 갈현로 18 B01호 (갈현동),010-8623-2123,도매 및 소매업,전자상거래 소매업,37.4231672,127.1749904
5839feab-5edd-446e-b264-8bf2900bcd06,더샵PC방-거모점(공동 차동욱),차동욱,개인,140-11-57199,경기도 시흥시 군자로 500-1 (거모동,"429873 경기도 시흥시 군자로 500-1 (거모동, 2층)",010-8366-2711,서비스(예술/스포츠 및 여가관련)업,인터넷PC방,37.3453841,126.7845015
86cf8db1-bab8-4bbe-ba60-bc633c4d40d7,더샵PC방-거모점(정현도외1인),정현도 외 1명,개인,140-11-57199,경기도 시흥시 군자로 500-1,15071 경기도 시흥시 군자로 500-1 (거모동),010-5520-8216,서비스,인터넷PC방,37.3453841,126.7845015
10c37e13-8bac-4694-a486-54b745ea930d,더샵pc방 장위점(유춘자),유춘자,개인,746-37-00475,서울특별시 성북구 화랑로33길 39,02771 서울특별시 성북구 화랑로33길 39 3층(장위동),010-7262-8595,서비스(예술/스포츠 및 여가관련)업,인터넷PC방,37.61187,127.0545422
c00fe43c-0e83-4f25-b52b-8f61b6771578,더예원음악학원,김현동,개인,215-94-19702,경기도 화성시 동탄대로9길 20,"18488 경기도 화성시 동탄대로9길 20 상가동 2층 202호,203호(송동)",010-4214-0675,교육서비스업,음악학원,37.176343,127.1035155
cb63f4f9-41a9-4fd2-8b70-cafd631bcb9f,더예원음악학원(백승미),백승미,개인,550-99-01662,경기도 화성시 동탄대로9길 20-203호,18488 경기도 화성시 동탄대로9길 20 상가동 202호-203호(송동),010-8739-0570,교육서비스업,음악학원,37.176343,127.1035155
3fb87ebc-b0ea-4479-b2e2-a941ef58769d,더좋은교회,송동하,개인,312-82-89447,부산광역시 해운대구 해운대로61번길 55-1,48041 부산광역시 해운대구 해운대로61번길 55-1 (반여동),--,,,35.1943369,129.1248582
c7219f91-8616-4cec-9421-24c3c1d0cd6f,더지구촌교회,최용대,개인,404-82-78249,전라남도 나주시 빛가람로 747 (빛가람동,"58217 전라남도 나주시 빛가람로 747 (빛가람동, 빛가람메디칼빌딩)",--,,,35.0215885,126.7937167
f8f1a783-c121-44b4-9fac-9c4439a43dd9,더처치,정준,개인,144-82-62700,서울특별시 관악구 쑥고개로 122,08832 서울특별시 관악구 쑥고개로 122 (봉천동),--,,,37.478735,126.9500121
54e7c881-efc1-407f-80c6-25e001253f3b,더캠프PC(아산탕정점),조동기,개인,626-63-00603,충청남도 아산시 탕정면 탕정면로 18,31456 충청남도 아산시 탕정면 탕정면로 18 4층,010-6519-9111,"예술, 스포츠 및 여가관련 서비스업",컴퓨터 게임방 운영업,36.798555,127.0591195
40ad32d4-4399-4494-b3ae-6019920eb47c,더캠프PC(천안쌍용),조동기,개인,208-08-18793,충청남도 천안시 서북구 월봉로 92(쌍용동,"31172 충청남도 천안시 서북구 월봉로 92 지하1층 (쌍용동, 호성빌딩)",010-6519-9111,"예술, 스포츠 및 여가관련 서비스업",컴퓨터 게임방 운영업,36.7987667,127.1184645
6289410b-ee2f-4c41-90ad-4dc6b630058a,더캠프PC방 거제장평점-최인하,최인하,개인,612-10-79750,경상남도 거제시 중곡로3길 35 (고현동,"656936 경상남도 거제시 중곡로3길 35 (고현동,2층)",010-8662-6762,서비스(예술/스포츠 및 여가관련)업,인터넷PC방,34.8935419,128.6264697
80f9b7ea-e8b4-47cb-aafe-12e31b88f15a,더캠프PC방 속초점(이진구외1),이진구,개인,636-29-01610,강원특별자치도 속초시 동해대로 4147B01,"24874 강원특별자치도 속초시 동해대로 4147 A동 지하1층 B01,B02호(조양동)",010-5114-8965,"예술, 스포츠 및 여가관련 서비스업",컴퓨터 게임방 운영업,38.1920731,128.5857189
8b2a6ecf-8c06-47ef-a74f-bb6cf3554461,더캠프PC방(청주봉명점)-구본진,구본진,개인,257-13-02579,충청북도 청주시 흥덕구 백봉로197번길 8,28465 충청북도 청주시 흥덕구 백봉로197번길 8 4층 일부호(봉명동),010-2390-3469,"서비스업,음식점업","PC방,휴게음식점",36.6497648,127.4577259
ce6302f8-80f8-4b72-a0b5-9e31083c0d46,더캠프pc방(석계점),김정훈,개인,598-21-00972,서울특별시 노원구 화랑로 325(월계동,"01904 서울특별시 노원구 화랑로 325 지1층(월계동, 우현빌딩)",010-9335-0853,"예술, 스포츠 및 여가관련 서비스업",컴퓨터 게임방 운영업,37.6298887,127.061486
28feae1f-0f01-4d0f-b09c-79ff49c403e6,더캠프피시-잠실,염동진,개인,177-28-00769,서울특별시 송파구 올림픽로 106(잠실동,"05557 서울특별시 송파구 올림픽로 106 지하1층(잠실동, 상록빌딩)",010-6392-5673,"예술, 스포츠 및 여가관련 서비스업",컴퓨터 게임방 운영업,37.5067945,127.0830482
fec2cd3c-c67c-4ec9-b3da-a37042dc6203,더코지홈(Thecozyhome),양소영,개인,135-20-32863,서울 서초구 언남11길 34-14,"06776 서울 서초구 언남11길 34-14 , 401호(양재동)",010-4902-5936,서비스,"디자인, 인테리어, 디스플레이",37.4758605,127.0437319
2576b032-3fb5-4eb4-8a69-daef9cd4bad0,더테이블처치,장승리,개인,620-82-07287,울산광역시 북구 아진로 94 (천곡동,"44204 울산광역시 북구 아진로 94 (천곡동, 농협,아진프라자복합상가)",--,,,35.6310372,129.3386228
3f8a771f-fa99-4c03-9676-479f3a08ce57,더파크,박인홍,개인,894-02-00374,서울특별시 금천구 시흥대로123길 44,08523 서울특별시 금천구 시흥대로123길 44 (독산동),010-7288-0904,부동산업,점포(자기땅),37.4713832,126.8960424
fd5314bc-4ed4-4155-b4a3-7db30e93c946,더퍼스트 2508(백지성),백지성,개인,494-95-01802,경기도 안양시 동안구 부림로169번길 41 (관양동,"14051 경기도 안양시 동안구 부림로169번길 41 101동 2508호 (관양동, 힐스테이트평촌역더퍼스트)",010-5386-4800,부동산업,주거용 건물 임대업,37.39746969999999,126.961712
626247fe-94d3-4fc4-9da2-c1f2d761dd9b,더풍성한교회,강일신,개인,418-82-60146,전북특별자치도 전주시 덕진구 인교6길 16 (우아동1가,"55028 전북특별자치도 전주시 덕진구 인교6길 16 (우아동1가, 성복중앙교회)",--,,,35.8256401,127.1712738
604042b8-8c32-4de0-a060-495253ecb5d9,덕천교회,정경수,개인,402-82-66067,전북특별자치도 완주군읍 둔산1로 70,55319 전북특별자치도 완주군 봉동읍 둔산1로 70,010-9723-7711,,,35.9573934,127.1224289
f1ac372d-707c-4325-beda-33a90acbb467,덤프PC방 하월곡점(이동현),이동현,개인,481-14-01243,서울특별시 성북구 장월로1길 106,02748 서울특별시 성북구 장월로1길 106 3층(하월곡동),010-8289-8227,서비스업,PC방,37.6047181,127.0430953
